$GPRMC,235952.101,V,,,,,0.00,0.00,050180,,,N,V*31
$GPVTG,0.00,T,,M,0.00,N,0.00,K,N*32
$GPGGA,235952.101,,,,,0,0,,,M,,M,,*42
$GPGSA,A,1,,,,,,,,,,,,,,,,1*03
$GPGSA,A,1,,,,,,,,,,,,,,,,2*00
$GPGSV,1,1,00,0*65
$GLGSV,1,1,00,1*78
$GPGLL,,,,,235952.101,V,N*70
$GPTXT,01,01,02,ANTSTATUS=OPEN*2B
$GPRMC,235953.101,V,,,,,0.00,0.00,050180,,,N,V*30
$GPVTG,0.00,T,,M,0.00,N,0.00,K,N*32
$GPGGA,235953.101,,,,,0,0,,,M,,M,,*43
$GPGSA,A,1,,,,,,,,,,,,,,,,1*03
$GPGSA,A,1,,,,,,,,,,,,,,,,2*00
$GPGSV,1,1,00,0*65
$GLGSV,1,1,00,1*78
$GPGLL,,,,,235953.101,V,N*71
$GPTXT,01,01,02,ANTSTATUS=OPEN*2B
$GPRMC,235954.101,V,,,,,0.00,0.00,050180,,,N,V*37
$GPVTG,0.00,T,,M,0.00,N,0.00,K,N*32
$GPGGA,235954.101,,,,,0,0,,,M,,M,,*44
$GPGSA,A,1,,,,,,,,,,,,,,,,1*03
$GPGSA,A,1,,,,,,,,,,,,,,,,2*00
$GPGSV,1,1,00,0*65
$GLGSV,1,1,00,1*78
$GPGLL,,,,,235954.101,V,N*76
$GPTXT,01,01,02,ANTSTATUS=OPEN*2B
$GPRMC,235955.101,V,,,,,0.00,0.00,050180,,,N,V*36
$GPVTG,0.00,T,,M,0.00,N,0.00,K,N*32
$GPGGA,235955.101,,,,,0,0,,,M,,M,,*45
$GPGSA,A,1,,,,,,,,,,,,,,,,1*03
$GPGSA,A,1,,,,,,,,,,,,,,,,2*00
$GPGSV,1,1,00,0*65
$GLGSV,1,1,00,1*78
$GPGLL,,,,,235955.101,V,N*77
$GPTXT,01,01,02,ANTSTATUS=OPEN*2B
$GPRMC,235956.101,V,,,,,0.00,0.00,050180,,,N,V*35
$GPVTG,0.00,T,,M,0.00,N,0.00,K,N*32
$GPGGA,235956.101,,,,,0,0,,,M,,M,,*46
$GPGSA,A,1,,,,,,,,,,,,,,,,1*03
$GPGSA,A,1,,,,,,,,,,,,,,,,2*00
$GPGSV,1,1,00,0*65
$GLGSV,1,1,00,1*78
$GPGLL,,,,,235956.101,V,N*74
$GPTXT,01,01,02,ANTSTATUS=OPEN*2B
$GPRMC,235957.101,V,,,,,0.00,0.00,050180,,,N,V*34
$GPVTG,0.00,T,,M,0.00,N,0.00,K,N*32
$GPGGA,235957.101,,,,,0,0,,,M,,M,,*47
$GPGSA,A,1,,,,,,,,,,,,,,,,1*03
$GPGSA,A,1,,,,,,,,,,,,,,,,2*00
$GPGSV,1,1,00,0*65
$GLGSV,1,1,00,1*78
$GPGLL,,,,,235957.101,V,N*75
$GPTXT,01,01,02,ANTSTATUS=OPEN*2B
$GPRMC,235958.100,V,,,,,0.00,0.00,050180,,,N,V*3A
$GPVTG,0.00,T,,M,0.00,N,0.00,K,N*32
$GPGGA,235958.100,,,,,0,0,,,M,,M,,*49
$GPGSA,A,1,,,,,,,,,,,,,,,,1*03
$GPGSA,A,1,,,,,,,,,,,,,,,,2*00
$GPGSV,1,1,00,0*65
$GLGSV,1,1,00,1*78
$GPGLL,,,,,235958.100,V,N*7B
$GPTXT,01,01,02,ANTSTATUS=OPEN*2B
$GPRMC,235959.100,V,,,,,0.00,0.00,050180,,,N,V*3B
$GPVTG,0.00,T,,M,0.00,N,0.00,K,N*32
$GPGGA,235959.100,,,,,0,0,,,M,,M,,*48
$GPGSA,A,1,,,,,,,,,,,,,,,,1*03
$GPGSA,A,1,,,,,,,,,,,,,,,,2*00
$GPGSV,1,1,00,0*65
$GLGSV,1,1,00,1*78
$GPGLL,,,,,235959.100,V,N*7A
$GPTXT,01,01,02,ANTSTATUS=OPEN*2B
$GPRMC,000000.100,V,,,,,0.00,0.00,060180,,,N,V*39
$GPVTG,0.00,T,,M,0.00,N,0.00,K,N*32
$GPGGA,000000.100,,,,,0,0,,,M,,M,,*49
$GPGSA,A,1,,,,,,,,,,,,,,,,1*03
$GPGSA,A,1,,,,,,,,,,,,,,,,2*00
$GPGSV,1,1,00,0*65
$GLGSV,1,1,00,1*78
$GPGLL,,,,,000000.100,V,N*7B
$GPTXT,01,01,02,ANTSTATUS=OPEN*2B
$GPRMC,000001.100,V,,,,,0.00,0.00,060180,,,N,V*38
$GPVTG,0.00,T,,M,0.00,N,0.00,K,N*32
$GPGGA,000001.100,,,,,0,0,,,M,,M,,*48
$GPGSA,A,1,,,,,,,,,,,,,,,,1*03
$GPGSA,A,1,,,,,,,,,,,,,,,,2*00
$GPGSV,1,1,00,0*65
$GLGSV,1,1,00,1*78
$GPGLL,,,,,000001.100,V,N*7A
$GPTXT,01,01,02,ANTSTATUS=OPEN*2B
$GPRMC,000002.100,V,,,,,0.00,0.00,060180,,,N,V*3B
$GPVTG,0.00,T,,M,0.00,N,0.00,K,N*32
$GPGGA,000002.100,,,,,0,0,,,M,,M,,*4B
$GPGSA,A,1,,,,,,,,,,,,,,,,1*03
$GPGSA,A,1,,,,,,,,,,,,,,,,2*00
$GPGSV,1,1,00,0*65
$GLGSV,1,1,00,1*78
$GPGLL,,,,,000002.100,V,N*79
$GPTXT,01,01,02,ANTSTATUS=OPEN*2B
$GPRMC,000003.100,V,,,,,0.00,0.00,060180,,,N,V*3A
$GPVTG,0.00,T,,M,0.00,N,0.00,K,N*32
$GPGGA,000003.100,,,,,0,0,,,M,,M,,*4A
$GPGSA,A,1,,,,,,,,,,,,,,,,1*03
$GPGSA,A,1,,,,,,,,,,,,,,,,2*00
$GPGSV,1,1,00,0*65
$GLGSV,1,1,00,1*78
$GPGLL,,,,,000003.100,V,N*78
$GPTXT,01,01,02,ANTSTATUS=OPEN*2B
$GPRMC,000004.100,V,,,,,0.00,0.00,060180,,,N,V*3D
$GPVTG,0.00,T,,M,0.00,N,0.00,K,N*32
$GPGGA,000004.100,,,,,0,0,,,M,,M,,*4D
$GPGSA,A,1,,,,,,,,,,,,,,,,1*03
$GPGSA,A,1,,,,,,,,,,,,,,,,2*00
$GPGSV,1,1,00,0*65
$GLGSV,1,1,00,1*78
$GPGLL,,,,,000004.100,V,N*7F
$GPTXT,01,01,02,ANTSTATUS=OPEN*2B
$GPRMC,000005.100,V,,,,,0.00,0.00,060180,,,N,V*3C
$GPVTG,0.00,T,,M,0.00,N,0.00,K,N*32
$GPGGA,000005.100,,,,,0,0,,,M,,M,,*4C
$GPGSA,A,1,,,,,,,,,,,,,,,,1*03
$GPGSA,A,1,,,,,,,,,,,,,,,,2*00
$GPGSV,1,1,00,0*65
$GLGSV,1,1,00,1*78
$GPGLL,,,,,000005.100,V,N*7E
$GPTXT,01,01,02,ANTSTATUS=OPEN*2B
$GPRMC,000006.100,V,,,,,0.00,0.00,060180,,,N,V*3F
$GPVTG,0.00,T,,M,0.00,N,0.00,K,N*32
$GPGGA,000006.100,,,,,0,0,,,M,,M,,*4F
$GPGSA,A,1,,,,,,,,,,,,,,,,1*03
$GPGSA,A,1,,,,,,,,,,,,,,,,2*00
$GPGSV,1,1,00,0*65
$GLGSV,1,1,00,1*78
$GPGLL,,,,,000006.100,V,N*7D
$GPTXT,01,01,02,ANTSTATUS=OPEN*2B
$GPRMC,000007.100,V,,,,,0.00,0.00,060180,,,N,V*3E
$GPVTG,0.00,T,,M,0.00,N,0.00,K,N*32
$GPGGA,000007.100,,,,,0,0,,,M,,M,,*4E
$GPGSA,A,1,,,,,,,,,,,,,,,,1*03
$GPGSA,A,1,,,,,,,,,,,,,,,,2*00
$GPGSV,1,1,00,0*65
$GLGSV,1,1,00,1*78
$GPGLL,,,,,000007.100,V,N*7C
$GPTXT,01,01,02,ANTSTATUS=OPEN*2B
$GPRMC,000008.100,V,,,,,0.00,0.00,060180,,,N,V*31
$GPVTG,0.00,T,,M,0.00,N,0.00,K,N*32
$GPGGA,000008.100,,,,,0,0,,,M,,M,,*41
$GPGSA,A,1,,,,,,,,,,,,,,,,1*03
$GPGSA,A,1,,,,,,,,,,,,,,,,2*00
$GPGSV,1,1,00,0*65
$GLGSV,1,1,00,1*78
$GPGLL,,,,,000008.100,V,N*73
$GPTXT,01,01,02,ANTSTATUS=OPEN*2B
$GPRMC,000009.100,V,,,,,0.00,0.00,060180,,,N,V*30
$GPVTG,0.00,T,,M,0.00,N,0.00,K,N*32
$GPGGA,000009.100,,,,,0,0,,,M,,M,,*40
$GPGSA,A,1,,,,,,,,,,,,,,,,1*03
$GPGSA,A,1,,,,,,,,,,,,,,,,2*00
$GPGSV,1,1,00,0*65
$GLGSV,1,1,00,1*78
$GPGLL,,,,,000009.100,V,N*72
$GPTXT,01,01,02,ANTSTATUS=OPEN*2B
$GPRMC,000010.100,V,,,,,0.00,0.00,060180,,,N,V*38
$GPVTG,0.00,T,,M,0.00,N,0.00,K,N*32
$GPGGA,000010.100,,,,,0,0,,,M,,M,,*48
$GPGSA,A,1,,,,,,,,,,,,,,,,1*03
$GPGSA,A,1,,,,,,,,,,,,,,,,2*00
$GPGSV,1,1,00,0*65
$GLGSV,1,1,00,1*78
$GPGLL,,,,,000010.100,V,N*7A
$GPTXT,01,01,02,ANTSTATUS=OPEN*2B
$GPRMC,000011.100,V,,,,,0.00,0.00,060180,,,N,V*39
$GPVTG,0.00,T,,M,0.00,N,0.00,K,N*32
$GPGGA,000011.100,,,,,0,0,,,M,,M,,*49
$GPGSA,A,1,,,,,,,,,,,,,,,,1*03
$GPGSA,A,1,,,,,,,,,,,,,,,,2*00
$GPGSV,1,1,00,0*65
$GLGSV,1,1,00,1*78
$GPGLL,,,,,000011.100,V,N*7B
$GPTXT,01,01,02,ANTSTATUS=OPEN*2B
$GPRMC,000012.100,V,,,,,0.00,0.00,060180,,,N,V*3A
$GPVTG,0.00,T,,M,0.00,N,0.00,K,N*32
$GPGGA,000012.100,,,,,0,0,,,M,,M,,*4A
$GPGSA,A,1,,,,,,,,,,,,,,,,1*03
$GPGSA,A,1,,,,,,,,,,,,,,,,2*00
$GPGSV,1,1,00,0*65
$GLGSV,1,1,00,1*78
$GPGLL,,,,,000012.100,V,N*78
$GPTXT,01,01,02,ANTSTATUS=OPEN*2B
$GPRMC,000013.100,V,,,,,0.00,0.00,060180,,,N,V*3B
$GPVTG,0.00,T,,M,0.00,N,0.00,K,N*32
$GPGGA,000013.100,,,,,0,0,,,M,,M,,*4B
$GPGSA,A,1,,,,,,,,,,,,,,,,1*03
$GPGSA,A,1,,,,,,,,,,,,,,,,2*00
$GPGSV,1,1,00,0*65
$GLGSV,1,1,00,1*78
$GPGLL,,,,,000013.100,V,N*79
$GPTXT,01,01,02,ANTSTATUS=OPEN*2B
$GPRMC,000014.100,V,,,,,0.00,0.00,060180,,,N,V*3C
$GPVTG,0.00,T,,M,0.00,N,0.00,K,N*32
$GPGGA,000014.100,,,,,0,0,,,M,,M,,*4C
$GPGSA,A,1,,,,,,,,,,,,,,,,1*03
$GPGSA,A,1,,,,,,,,,,,,,,,,2*00
$GPGSV,1,1,00,0*65
$GLGSV,1,1,00,1*78
$GPGLL,,,,,000014.100,V,N*7E
$GPTXT,01,01,02,ANTSTATUS=OPEN*2B
$GPRMC,000015.100,V,,,,,0.00,0.00,060180,,,N,V*3D
$GPVTG,0.00,T,,M,0.00,N,0.00,K,N*32
$GPGGA,000015.100,,,,,0,0,,,M,,M,,*4D
$GPGSA,A,1,,,,,,,,,,,,,,,,1*03
$GPGSA,A,1,,,,,,,,,,,,,,,,2*00
$GPGSV,1,1,00,0*65
$GLGSV,1,1,00,1*78
$GPGLL,,,,,000015.100,V,N*7F
$GPTXT,01,01,02,ANTSTATUS=OPEN*2B
$GPRMC,000016.100,V,,,,,0.00,0.00,060180,,,N,V*3E
$GPVTG,0.00,T,,M,0.00,N,0.00,K,N*32
$GPGGA,000016.100,,,,,0,0,,,M,,M,,*4E
$GPGSA,A,1,,,,,,,,,,,,,,,,1*03
$GPGSA,A,1,,,,,,,,,,,,,,,,2*00
$GPGSV,1,1,00,0*65
$GLGSV,1,1,00,1*78
$GPGLL,,,,,000016.100,V,N*7C
$GPTXT,01,01,02,ANTSTATUS=OPEN*2B
$GPRMC,000017.100,V,,,,,0.00,0.00,060180,,,N,V*3F
$GPVTG,0.00,T,,M,0.00,N,0.00,K,N*32
$GPGGA,000017.100,,,,,0,0,,,M,,M,,*4F
$GPGSA,A,1,,,,,,,,,,,,,,,,1*03
$GPGSA,A,1,,,,,,,,,,,,,,,,2*00
$GPGSV,1,1,00,0*65
$GLGSV,1,1,00,1*78
$GPGLL,,,,,000017.100,V,N*7D
$GPTXT,01,01,02,ANTSTATUS=OPEN*2B
$GPRMC,000018.100,V,,,,,0.00,0.00,060180,,,N,V*30
$GPVTG,0.00,T,,M,0.00,N,0.00,K,N*32
$GPGGA,000018.100,,,,,0,0,,,M,,M,,*40
$GPGSA,A,1,,,,,,,,,,,,,,,,1*03
$GPGSA,A,1,,,,,,,,,,,,,,,,2*00
$GPGSV,1,1,00,0*65
$GLGSV,1,1,00,1*78
$GPGLL,,,,,000018.100,V,N*72
$GPTXT,01,01,02,ANTSTATUS=OPEN*2B
$GPRMC,000019.100,V,,,,,0.00,0.00,060180,,,N,V*31
$GPVTG,0.00,T,,M,0.00,N,0.00,K,N*32
$GPGGA,000019.100,,,,,0,0,,,M,,M,,*41
$GPGSA,A,1,,,,,,,,,,,,,,,,1*03
$GPGSA,A,1,,,,,,,,,,,,,,,,2*00
$GPGSV,1,1,00,0*65
$GLGSV,1,1,00,1*78
$GPGLL,,,,,000019.100,V,N*73
$GPTXT,01,01,02,ANTSTATUS=OPEN*2B
$GPRMC,000020.100,V,,,,,0.00,0.00,060180,,,N,V*3B
$GPVTG,0.00,T,,M,0.00,N,0.00,K,N*32
$GPGGA,000020.100,,,,,0,0,,,M,,M,,*4B
$GPGSA,A,1,,,,,,,,,,,,,,,,1*03
$GPGSA,A,1,,,,,,,,,,,,,,,,2*00
$GPGSV,1,1,00,0*65
$GLGSV,1,1,00,1*78
$GPGLL,,,,,000020.100,V,N*79
$GPTXT,01,01,02,ANTSTATUS=OPEN*2B
$GPRMC,000021.100,V,,,,,0.00,0.00,060180,,,N,V*3A
$GPVTG,0.00,T,,M,0.00,N,0.00,K,N*32
$GPGGA,000021.100,,,,,0,0,,,M,,M,,*4A
$GPGSA,A,1,,,,,,,,,,,,,,,,1*03
$GPGSA,A,1,,,,,,,,,,,,,,,,2*00
$GPGSV,1,1,00,0*65
$GLGSV,1,1,00,1*78
$GPGLL,,,,,000021.100,V,N*78
$GPTXT,01,01,02,ANTSTATUS=OPEN*2B
$GPRMC,000022.100,V,,,,,0.00,0.00,060180,,,N,V*39
$GPVTG,0.00,T,,M,0.00,N,0.00,K,N*32
$GPGGA,000022.100,,,,,0,0,,,M,,M,,*49
$GPGSA,A,1,,,,,,,,,,,,,,,,1*03
$GPGSA,A,1,,,,,,,,,,,,,,,,2*00
$GPGSV,1,1,00,0*65
$GLGSV,1,1,00,1*78
$GPGLL,,,,,000022.100,V,N*7B
$GPTXT,01,01,02,ANTSTATUS=OPEN*2B
$GPRMC,000023.100,V,,,,,0.00,0.00,060180,,,N,V*38
$GPVTG,0.00,T,,M,0.00,N,0.00,K,N*32
$GPGGA,000023.100,,,,,0,0,,,M,,M,,*48
$GPGSA,A,1,,,,,,,,,,,,,,,,1*03
$GPGSA,A,1,,,,,,,,,,,,,,,,2*00
$GPGSV,1,1,00,0*65
$GLGSV,1,1,00,1*78
$GPGLL,,,,,000023.100,V,N*7A
$GPTXT,01,01,02,ANTSTATUS=OPEN*2B
$GPRMC,000024.100,V,,,,,0.00,0.00,060180,,,N,V*3F
$GPVTG,0.00,T,,M,0.00,N,0.00,K,N*32
$GPGGA,000024.100,,,,,0,0,,,M,,M,,*4F
$GPGSA,A,1,,,,,,,,,,,,,,,,1*03
$GPGSA,A,1,,,,,,,,,,,,,,,,2*00
$GPGSV,1,1,00,0*65
$GLGSV,1,1,00,1*78
$GPGLL,,,,,000024.100,V,N*7D
$GPTXT,01,01,02,ANTSTATUS=OPEN*2B
$GPRMC,000025.100,V,,,,,0.00,0.00,060180,,,N,V*3E
$GPVTG,0.00,T,,M,0.00,N,0.00,K,N*32
$GPGGA,000025.100,,,,,0,0,,,M,,M,,*4E
$GPGSA,A,1,,,,,,,,,,,,,,,,1*03
$GPGSA,A,1,,,,,,,,,,,,,,,,2*00
$GPGSV,1,1,00,0*65
$GLGSV,1,1,00,1*78
$GPGLL,,,,,000025.100,V,N*7C
$GPTXT,01,01,02,ANTSTATUS=OPEN*2B
$GPRMC,000026.100,V,,,,,0.00,0.00,060180,,,N,V*3D
$GPVTG,0.00,T,,M,0.00,N,0.00,K,N*32
$GPGGA,000026.100,,,,,0,0,,,M,,M,,*4D
$GPGSA,A,1,,,,,,,,,,,,,,,,1*03
$GPGSA,A,1,,,,,,,,,,,,,,,,2*00
$GPGSV,1,1,00,0*65
$GLGSV,1,1,00,1*78
$GPGLL,,,,,000026.100,V,N*7F
$GPTXT,01,01,02,ANTSTATUS=OPEN*2B
$GPRMC,000027.100,V,,,,,0.00,0.00,060180,,,N,V*3C
$GPVTG,0.00,T,,M,0.00,N,0.00,K,N*32
$GPGGA,000027.100,,,,,0,0,,,M,,M,,*4C
$GPGSA,A,1,,,,,,,,,,,,,,,,1*03
$GPGSA,A,1,,,,,,,,,,,,,,,,2*00
$GPGSV,1,1,00,0*65
$GLGSV,1,1,00,1*78
$GPGLL,,,,,000027.100,V,N*7E
$GPTXT,01,01,02,ANTSTATUS=OPEN*2B
$GPRMC,000028.100,V,,,,,0.00,0.00,060180,,,N,V*33
$GPVTG,0.00,T,,M,0.00,N,0.00,K,N*32
$GPGGA,000028.100,,,,,0,0,,,M,,M,,*43
$GPGSA,A,1,,,,,,,,,,,,,,,,1*03
$GPGSA,A,1,,,,,,,,,,,,,,,,2*00
$GPGSV,1,1,00,0*65
$GLGSV,1,1,00,1*78
$GPGLL,,,,,000028.100,V,N*71
$GPTXT,01,01,02,ANTSTATUS=OPEN*2B
$GPRMC,000029.100,V,,,,,0.00,0.00,060180,,,N,V*32
$GPVTG,0.00,T,,M,0.00,N,0.00,K,N*32
$GPGGA,000029.100,,,,,0,0,,,M,,M,,*42
$GPGSA,A,1,,,,,,,,,,,,,,,,1*03
$GPGSA,A,1,,,,,,,,,,,,,,,,2*00
$GPGSV,1,1,00,0*65
$GLGSV,1,1,00,1*78
$GPGLL,,,,,000029.100,V,N*70
$GPTXT,01,01,02,ANTSTATUS=OPEN*2B
$GPRMC,000030.100,V,,,,,0.00,0.00,060180,,,N,V*3A
$GPVTG,0.00,T,,M,0.00,N,0.00,K,N*32
$GPGGA,000030.100,,,,,0,0,,,M,,M,,*4A
$GPGSA,A,1,,,,,,,,,,,,,,,,1*03
$GPGSA,A,1,,,,,,,,,,,,,,,,2*00
$GPGSV,1,1,00,0*65
$GLGSV,1,1,00,1*78
$GPGLL,,,,,000030.100,V,N*78
$GPTXT,01,01,02,ANTSTATUS=OPEN*2B
$GPRMC,000031.100,V,,,,,0.00,0.00,060180,,,N,V*3B
$GPVTG,0.00,T,,M,0.00,N,0.00,K,N*32
$GPGGA,000031.100,,,,,0,0,,,M,,M,,*4B
$GPGSA,A,1,,,,,,,,,,,,,,,,1*03
$GPGSA,A,1,,,,,,,,,,,,,,,,2*00
$GPGSV,1,1,00,0*65
$GLGSV,1,1,00,1*78
$GPGLL,,,,,000031.100,V,N*79
$GPTXT,01,01,02,ANTSTATUS=OPEN*2B
$GPRMC,000032.100,V,,,,,0.00,0.00,060180,,,N,V*38
$GPVTG,0.00,T,,M,0.00,N,0.00,K,N*32
$GPGGA,000032.100,,,,,0,0,,,M,,M,,*48
$GPGSA,A,1,,,,,,,,,,,,,,,,1*03
$GPGSA,A,1,,,,,,,,,,,,,,,,2*00
$GPGSV,1,1,00,0*65
$GLGSV,1,1,00,1*78
$GPGLL,,,,,000032.100,V,N*7A
$GPTXT,01,01,02,ANTSTATUS=OPEN*2B
$GPRMC,000033.100,V,,,,,0.00,0.00,060180,,,N,V*39
$GPVTG,0.00,T,,M,0.00,N,0.00,K,N*32
$GPGGA,000033.100,,,,,0,0,,,M,,M,,*49
$GPGSA,A,1,,,,,,,,,,,,,,,,1*03
$GPGSA,A,1,,,,,,,,,,,,,,,,2*00
$GPGSV,1,1,01,16,,,22,0*63
$GLGSV,1,1,00,1*78
$GPGLL,,,,,000033.100,V,N*7B
$GPTXT,01,01,02,ANTSTATUS=OPEN*2B
$GPRMC,000034.100,V,,,,,0.00,0.00,060180,,,N,V*3E
$GPVTG,0.00,T,,M,0.00,N,0.00,K,N*32
$GPGGA,000034.100,,,,,0,0,,,M,,M,,*4E
$GPGSA,A,1,,,,,,,,,,,,,,,,1*03
$GPGSA,A,1,,,,,,,,,,,,,,,,2*00
$GPGSV,1,1,01,16,,,25,0*64
$GLGSV,1,1,00,1*78
$GPGLL,,,,,000034.100,V,N*7C
$GPTXT,01,01,02,ANTSTATUS=OPEN*2B
$GPRMC,000035.100,V,,,,,0.00,0.00,060180,,,N,V*3F
$GPVTG,0.00,T,,M,0.00,N,0.00,K,N*32
$GPGGA,000035.100,,,,,0,0,,,M,,M,,*4F
$GPGSA,A,1,,,,,,,,,,,,,,,,1*03
$GPGSA,A,1,,,,,,,,,,,,,,,,2*00
$GPGSV,1,1,01,16,,,25,0*64
$GLGSV,1,1,00,1*78
$GPGLL,,,,,000035.100,V,N*7D
$GPTXT,01,01,02,ANTSTATUS=OPEN*2B
$GPRMC,000036.100,V,,,,,0.00,0.00,060180,,,N,V*3C
$GPVTG,0.00,T,,M,0.00,N,0.00,K,N*32
$GPGGA,000036.100,,,,,0,0,,,M,,M,,*4C
$GPGSA,A,1,,,,,,,,,,,,,,,,1*03
$GPGSA,A,1,,,,,,,,,,,,,,,,2*00
$GPGSV,1,1,01,16,,,24,0*65
$GLGSV,1,1,00,1*78
$GPGLL,,,,,000036.100,V,N*7E
$GPTXT,01,01,02,ANTSTATUS=OPEN*2B
$GPRMC,000037.100,V,,,,,0.00,0.00,060180,,,N,V*3D
$GPVTG,0.00,T,,M,0.00,N,0.00,K,N*32
$GPGGA,000037.100,,,,,0,0,,,M,,M,,*4D
$GPGSA,A,1,,,,,,,,,,,,,,,,1*03
$GPGSA,A,1,,,,,,,,,,,,,,,,2*00
$GPGSV,1,1,01,16,,,25,0*64
$GLGSV,1,1,00,1*78
$GPGLL,,,,,000037.100,V,N*7F
$GPTXT,01,01,02,ANTSTATUS=OPEN*2B
$GPRMC,000038.100,V,,,,,0.00,0.00,060180,,,N,V*32
$GPVTG,0.00,T,,M,0.00,N,0.00,K,N*32
$GPGGA,000038.100,,,,,0,0,,,M,,M,,*42
$GPGSA,A,1,,,,,,,,,,,,,,,,1*03
$GPGSA,A,1,,,,,,,,,,,,,,,,2*00
$GPGSV,1,1,01,16,,,25,0*64
$GLGSV,1,1,00,1*78
$GPGLL,,,,,000038.100,V,N*70
$GPTXT,01,01,02,ANTSTATUS=OPEN*2B
$GPRMC,000039.100,V,,,,,0.00,0.00,060180,,,N,V*33
$GPVTG,0.00,T,,M,0.00,N,0.00,K,N*32
$GPGGA,000039.100,,,,,0,0,,,M,,M,,*43
$GPGSA,A,1,,,,,,,,,,,,,,,,1*03
$GPGSA,A,1,,,,,,,,,,,,,,,,2*00
$GPGSV,1,1,01,16,,,25,0*64
$GLGSV,1,1,00,1*78
$GPGLL,,,,,000039.100,V,N*71
$GPTXT,01,01,02,ANTSTATUS=OPEN*2B
$GPRMC,000040.100,V,,,,,0.00,0.00,060180,,,N,V*3D
$GPVTG,0.00,T,,M,0.00,N,0.00,K,N*32
$GPGGA,000040.100,,,,,0,0,,,M,,M,,*4D
$GPGSA,A,1,,,,,,,,,,,,,,,,1*03
$GPGSA,A,1,,,,,,,,,,,,,,,,2*00
$GPGSV,1,1,01,16,,,25,0*64
$GLGSV,1,1,00,1*78
$GPGLL,,,,,000040.100,V,N*7F
$GPTXT,01,01,02,ANTSTATUS=OPEN*2B
$GPRMC,000041.100,V,,,,,0.00,0.00,060180,,,N,V*3C
$GPVTG,0.00,T,,M,0.00,N,0.00,K,N*32
$GPGGA,000041.100,,,,,0,0,,,M,,M,,*4C
$GPGSA,A,1,,,,,,,,,,,,,,,,1*03
$GPGSA,A,1,,,,,,,,,,,,,,,,2*00
$GPGSV,1,1,01,16,,,25,0*64
$GLGSV,1,1,00,1*78
$GPGLL,,,,,000041.100,V,N*7E
$GPTXT,01,01,02,ANTSTATUS=OPEN*2B
$GPRMC,000041.475,V,,,,,0.00,0.00,060180,,,N,V*3B
$GPVTG,0.00,T,,M,0.00,N,0.00,K,N*32
$GPGGA,000041.475,,,,,0,0,,,M,,M,,*4B
$GPGSA,A,1,,,,,,,,,,,,,,,,1*03
$GPGSA,A,1,,,,,,,,,,,,,,,,2*00
$GPGSV,1,1,01,16,,,25,0*64
$GLGSV,1,1,00,1*78
$GPGLL,,,,,000041.475,V,N*79
$GPTXT,01,01,02,ANTSTATUS=OPEN*2B
$GPRMC,000042.475,V,,,,,0.00,0.00,060180,,,N,V*38
$GPVTG,0.00,T,,M,0.00,N,0.00,K,N*32
$GPGGA,000042.475,,,,,0,0,,,M,,M,,*48
$GPGSA,A,1,,,,,,,,,,,,,,,,1*03
$GPGSA,A,1,,,,,,,,,,,,,,,,2*00
$GPGSV,1,1,02,16,,,25,20,,,25,0*62
$GLGSV,1,1,00,1*78
$GPGLL,,,,,000042.475,V,N*7A
$GPTXT,01,01,02,ANTSTATUS=OPEN*2B
$GPRMC,094938.089,V,,,,,0.00,0.00,281023,,,N,V*33
$GPVTG,0.00,T,,M,0.00,N,0.00,K,N*32
$GPGGA,094938.089,,,,,0,0,,,M,,M,,*46
$GPGSA,A,1,,,,,,,,,,,,,,,,1*03
$GPGSA,A,1,,,,,,,,,,,,,,,,2*00
$GPGSV,3,1,10,09,86,039,,06,44,244,,07,40,190,,11,38,295,,0*61
$GPGSV,3,2,10,16,21,074,25,20,21,306,29,26,18,045,,03,16,130,,0*60
$GPGSV,3,3,10,30,12,205,,29,04,355,,0*6F
$GLGSV,1,1,00,1*78
$GPGLL,,,,,094938.089,V,N*74
$GPTXT,01,01,02,ANTSTATUS=OPEN*2B
$GPRMC,094939.089,V,,,,,0.00,0.00,281023,,,N,V*32
$GPVTG,0.00,T,,M,0.00,N,0.00,K,N*32
$GPGGA,094939.089,,,,,0,0,,,M,,M,,*47
$GPGSA,A,1,,,,,,,,,,,,,,,,1*03
$GPGSA,A,1,,,,,,,,,,,,,,,,2*00
$GPGSV,3,1,10,09,86,039,,06,44,244,,07,40,190,,11,38,295,,0*61
$GPGSV,3,2,10,16,21,074,25,20,21,306,28,26,18,045,,03,16,130,,0*61
$GPGSV,3,3,10,30,12,205,,29,04,355,,0*6F
$GLGSV,1,1,00,1*78
$GPGLL,,,,,094939.089,V,N*75
$GPTXT,01,01,02,ANTSTATUS=OPEN*2B
$GPRMC,094940.091,V,,,,,0.00,0.00,281023,,,N,V*35
$GPVTG,0.00,T,,M,0.00,N,0.00,K,N*32
$GPGGA,094940.091,,,,,0,0,,,M,,M,,*40
$GPGSA,A,1,,,,,,,,,,,,,,,,1*03
$GPGSA,A,1,,,,,,,,,,,,,,,,2*00
$GPGSV,3,1,10,09,86,039,,06,44,244,,07,40,190,,11,38,295,23,0*60
$GPGSV,3,2,10,16,21,074,25,20,21,306,29,26,18,045,,03,16,130,,0*60
$GPGSV,3,3,10,30,12,205,,29,04,355,,0*6F
$GLGSV,1,1,00,1*78
$GPGLL,,,,,094940.091,V,N*72
$GPTXT,01,01,02,ANTSTATUS=OPEN*2B
$GPRMC,094941.091,V,,,,,0.00,0.00,281023,,,N,V*34
$GPVTG,0.00,T,,M,0.00,N,0.00,K,N*32
$GPGGA,094941.091,,,,,0,0,,,M,,M,,*41
$GPGSA,A,1,,,,,,,,,,,,,,,,1*03
$GPGSA,A,1,,,,,,,,,,,,,,,,2*00
$GPGSV,3,1,10,09,86,039,,06,44,244,,07,40,190,,11,38,295,25,0*66
$GPGSV,3,2,10,16,21,074,25,20,21,306,29,26,18,045,,03,16,130,,0*60
$GPGSV,3,3,10,30,12,205,,29,04,355,,0*6F
$GLGSV,1,1,00,1*78
$GPGLL,,,,,094941.091,V,N*73
$GPTXT,01,01,02,ANTSTATUS=OPEN*2B
$GPRMC,094942.091,V,,,,,0.00,0.00,281023,,,N,V*37
$GPVTG,0.00,T,,M,0.00,N,0.01,K,N*33
$GPGGA,094942.091,,,,,0,0,,,M,,M,,*42
$GPGSA,A,1,,,,,,,,,,,,,,,,1*03
$GPGSA,A,1,,,,,,,,,,,,,,,,2*00
$GPGSV,3,1,10,09,86,039,,06,44,244,,07,40,190,,11,38,295,24,0*67
$GPGSV,3,2,10,16,21,074,25,20,21,306,29,26,18,045,,03,16,130,,0*60
$GPGSV,3,3,10,30,12,205,,29,04,355,,0*6F
$GLGSV,1,1,00,1*78
$GPGLL,,,,,094942.091,V,N*70
$GPTXT,01,01,02,ANTSTATUS=OPEN*2B
$GPRMC,094943.091,V,,,,,0.01,0.00,281023,,,N,V*37
$GPVTG,0.00,T,,M,0.01,N,0.02,K,N*31
$GPGGA,094943.091,,,,,0,0,,,M,,M,,*43
$GPGSA,A,1,,,,,,,,,,,,,,,,1*03
$GPGSA,A,1,,,,,,,,,,,,,,,,2*00
$GPGSV,3,1,10,09,86,039,,06,44,244,,07,40,190,,11,38,295,25,0*66
$GPGSV,3,2,10,16,21,074,25,20,21,306,29,26,18,045,,03,16,130,,0*60
$GPGSV,3,3,10,30,12,205,,29,04,355,,0*6F
$GLGSV,1,1,00,1*78
$GPGLL,,,,,094943.091,V,N*71
$GPTXT,01,01,02,ANTSTATUS=OPEN*2B
$GPRMC,094944.091,V,,,,,0.01,0.00,281023,,,N,V*30
$GPVTG,0.00,T,,M,0.01,N,0.02,K,N*31
$GPGGA,094944.091,,,,,0,0,,,M,,M,,*44
$GPGSA,A,1,,,,,,,,,,,,,,,,1*03
$GPGSA,A,1,,,,,,,,,,,,,,,,2*00
$GPGSV,3,1,10,09,86,039,,06,44,244,,07,40,190,,11,38,295,25,0*66
$GPGSV,3,2,10,16,21,074,25,20,21,306,29,26,18,045,,03,16,130,,0*60
$GPGSV,3,3,10,30,12,205,,29,04,355,,0*6F
$GLGSV,1,1,00,1*78
$GPGLL,,,,,094944.091,V,N*76
$GPTXT,01,01,02,ANTSTATUS=OPEN*2B
$GPRMC,094945.091,V,,,,,0.00,0.00,281023,,,N,V*30
$GPVTG,0.00,T,,M,0.00,N,0.00,K,N*32
$GPGGA,094945.091,,,,,0,0,,,M,,M,,*45
$GPGSA,A,1,,,,,,,,,,,,,,,,1*03
$GPGSA,A,1,,,,,,,,,,,,,,,,2*00
$GPGSV,3,1,10,09,86,039,,06,44,244,,07,40,190,,11,38,295,24,0*67
$GPGSV,3,2,10,16,21,074,25,20,21,306,28,26,18,045,,03,16,130,,0*61
$GPGSV,3,3,10,30,12,205,,29,04,355,,0*6F
$GLGSV,1,1,00,1*78
$GPGLL,,,,,094945.091,V,N*77
$GPTXT,01,01,02,ANTSTATUS=OPEN*2B
$GPRMC,094946.091,V,,,,,0.00,0.00,281023,,,N,V*33
$GPVTG,0.00,T,,M,0.00,N,0.01,K,N*33
$GPGGA,094946.091,,,,,0,0,,,M,,M,,*46
$GPGSA,A,1,,,,,,,,,,,,,,,,1*03
$GPGSA,A,1,,,,,,,,,,,,,,,,2*00
$GPGSV,3,1,10,09,86,039,,06,44,244,,07,40,190,,11,38,295,24,0*67
$GPGSV,3,2,10,16,21,074,25,20,21,306,28,26,18,045,,03,16,130,14,0*64
$GPGSV,3,3,10,30,12,205,,29,04,355,,0*6F
$GLGSV,1,1,00,1*78
$GPGLL,,,,,094946.091,V,N*74
$GPTXT,01,01,02,ANTSTATUS=OPEN*2B
$GPRMC,094947.091,V,,,,,0.02,0.00,281023,,,N,V*30
$GPVTG,0.00,T,,M,0.02,N,0.03,K,N*33
$GPGGA,094947.091,,,,,0,0,,,M,,M,,*47
$GPGSA,A,1,,,,,,,,,,,,,,,,1*03
$GPGSA,A,1,,,,,,,,,,,,,,,,2*00
$GPGSV,3,1,10,09,86,039,,06,44,244,,07,40,190,17,11,38,295,24,0*61
$GPGSV,3,2,10,16,21,074,25,20,21,306,28,26,18,045,,03,16,130,16,0*66
$GPGSV,3,3,10,30,12,205,,29,04,355,,0*6F
$GLGSV,1,1,00,1*78
$GPGLL,,,,,094947.091,V,N*75
$GPTXT,01,01,02,ANTSTATUS=OPEN*2B
$GPRMC,094948.091,V,,,,,0.00,0.00,281023,,,N,V*3D
$GPVTG,0.00,T,,M,0.00,N,0.00,K,N*32
$GPGGA,094948.091,,,,,0,0,,,M,,M,,*48
$GPGSA,A,1,,,,,,,,,,,,,,,,1*03
$GPGSA,A,1,,,,,,,,,,,,,,,,2*00
$GPGSV,3,1,10,09,86,039,,06,44,244,,07,40,190,16,11,38,295,25,0*61
$GPGSV,3,2,10,16,21,074,25,20,21,306,28,26,18,045,22,03,16,130,15,0*65
$GPGSV,3,3,10,30,12,205,,29,04,355,,0*6F
$GLGSV,1,1,00,1*78
$GPGLL,,,,,094948.091,V,N*7A
$GPTXT,01,01,02,ANTSTATUS=OPEN*2B
$GPRMC,094949.091,V,,,,,0.45,0.00,281023,,,N,V*3D
$GPVTG,0.00,T,,M,0.45,N,0.83,K,N*38
$GPGGA,094949.091,,,,,0,0,,,M,,M,,*49
$GPGSA,A,1,,,,,,,,,,,,,,,,1*03
$GPGSA,A,1,,,,,,,,,,,,,,,,2*00
$GPGSV,3,1,10,09,86,039,18,06,44,244,17,07,40,190,18,11,38,295,25,0*60
$GPGSV,3,2,10,16,21,074,25,20,21,306,28,26,18,045,21,03,16,130,15,0*66
$GPGSV,3,3,10,30,12,205,,29,04,355,,0*6F
$GLGSV,1,1,00,1*78
$GPGLL,,,,,094949.091,V,N*7B
$GPTXT,01,01,02,ANTSTATUS=OPEN*2B
$GPRMC,094950.091,V,,,,,0.15,0.00,281023,,,N,V*30
$GPVTG,0.00,T,,M,0.15,N,0.29,K,N*3D
$GPGGA,094950.091,,,,,0,0,,,M,,M,,*41
$GPGSA,A,1,,,,,,,,,,,,,,,,1*03
$GPGSA,A,1,,,,,,,,,,,,,,,,2*00
$GPGSV,3,1,10,09,86,039,19,06,44,244,17,07,40,190,18,11,38,295,25,0*61
$GPGSV,3,2,10,16,21,074,25,20,21,306,28,26,18,045,21,03,16,130,15,0*66
$GPGSV,3,3,10,30,12,205,,29,04,355,,0*6F
$GLGSV,1,1,00,1*78
$GPGLL,,,,,094950.091,V,N*73
$GPTXT,01,01,02,ANTSTATUS=OPEN*2B
$GPRMC,094951.091,V,,,,,0.25,0.00,281023,,,N,V*32
$GPVTG,0.00,T,,M,0.25,N,0.46,K,N*37
$GPGGA,094951.091,,,,,0,0,,,M,,M,,*40
$GPGSA,A,1,,,,,,,,,,,,,,,,1*03
$GPGSA,A,1,,,,,,,,,,,,,,,,2*00
$GPGSV,3,1,10,09,86,039,18,06,44,244,16,07,40,190,18,11,38,295,24,0*60
$GPGSV,3,2,10,16,21,074,25,20,21,306,28,26,18,045,21,03,16,130,15,0*66
$GPGSV,3,3,10,30,12,205,,29,04,355,,0*6F
$GLGSV,1,1,00,1*78
$GPGLL,,,,,094951.091,V,N*72
$GPTXT,01,01,02,ANTSTATUS=OPEN*2B
 $GPRMC,094953.000,V,,,,,0.35,0.00,281023,,,N,V*39
$GPVTG,0.00,T,,M,0.35,N,0.66,K,N*34
$GPGGA,094953.000,,,,,0,0,,,M,,M,,*4A
$GPGSA,A,1,,,,,,,,,,,,,,,,1*03
$GPGSA,A,1,,,,,,,,,,,,,,,,2*00
$GPGSV,3,1,10,09,86,039,19,06,44,244,16,07,40,190,18,11,38,295,23,0*66
$GPGSV,3,2,10,16,21,074,24,20,21,306,28,26,18,045,21,03,16,130,15,0*67
$GPGSV,3,3,10,30,12,205,,29,04,355,,0*6F
$GLGSV,1,1,00,1*78
$GPGLL,,,,,094953.000,V,N*78
$GPTXT,01,01,02,ANTSTATUS=OPEN*2B
$GPRMC,094954.000,V,,,,,0.34,0.00,281023,,,N,V*3F
$GPVTG,0.00,T,,M,0.34,N,0.64,K,N*37
$GPGGA,094954.000,,,,,0,0,,,M,,M,,*4D
$GPGSA,A,1,,,,,,,,,,,,,,,,1*03
$GPGSA,A,1,,,,,,,,,,,,,,,,2*00
$GPGSV,3,1,10,09,86,039,19,06,44,244,16,07,40,190,18,11,38,295,23,0*66
$GPGSV,3,2,10,16,21,074,24,20,21,306,28,26,18,045,21,03,16,130,15,0*67
$GPGSV,3,3,10,30,12,205,,29,04,355,,0*6F
$GLGSV,1,1,00,1*78
$GPGLL,,,,,094954.000,V,N*7F
$GPTXT,01,01,02,ANTSTATUS=OPEN*2B
$GPRMC,094955.000,V,,,,,0.80,1.50,281023,,,N,V*35
$GPVTG,1.50,T,,M,0.80,N,1.47,K,N*3C
$GPGGA,094955.000,,,,,0,0,,,M,,M,,*4C
$GPGSA,A,1,,,,,,,,,,,,,,,,1*03
$GPGSA,A,1,,,,,,,,,,,,,,,,2*00
$GPGSV,3,1,10,09,86,039,19,06,44,244,16,07,40,190,18,11,38,295,24,0*61
$GPGSV,3,2,10,16,21,074,24,20,21,306,28,26,18,045,21,03,16,130,15,0*67
$GPGSV,3,3,10,30,12,205,,29,04,355,,0*6F
$GLGSV,1,1,00,1*78
$GPGLL,,,,,094955.000,V,N*7E
$GPTXT,01,01,02,ANTSTATUS=OPEN*2B
$GPRMC,094956.000,V,,,,,0.86,0.02,281023,,,N,V*36
$GPVTG,0.02,T,,M,0.86,N,1.59,K,N*33
$GPGGA,094956.000,,,,,0,0,,,M,,M,,*4F
$GPGSA,A,1,,,,,,,,,,,,,,,,1*03
$GPGSA,A,1,,,,,,,,,,,,,,,,2*00
$GPGSV,3,1,10,09,86,039,18,06,44,244,16,07,40,190,19,11,38,295,25,0*60
$GPGSV,3,2,10,16,21,074,24,20,21,306,28,26,18,045,21,03,16,130,15,0*67
$GPGSV,3,3,10,30,12,205,,29,04,355,,0*6F
$GLGSV,1,1,00,1*78
$GPGLL,,,,,094956.000,V,N*7D
$GPTXT,01,01,02,ANTSTATUS=OPEN*2B
$GPRMC,094957.000,V,,,,,0.75,355.34,281023,,,N,V*3D
$GPVTG,355.34,T,,M,0.75,N,1.39,K,N*3F
$GPGGA,094957.000,,,,,0,0,,,M,,M,,*4E
$GPGSA,A,1,,,,,,,,,,,,,,,,1*03
$GPGSA,A,1,,,,,,,,,,,,,,,,2*00
$GPGSV,3,1,10,09,86,039,18,06,44,244,16,07,40,190,19,11,38,295,25,0*60
$GPGSV,3,2,10,16,21,074,24,20,21,306,28,26,18,045,21,03,16,130,15,0*67
$GPGSV,3,3,10,30,12,205,,29,04,355,,0*6F
$GLGSV,1,1,00,1*78
$GPGLL,,,,,094957.000,V,N*7C
$GPTXT,01,01,02,ANTSTATUS=OPEN*2B
$GPRMC,094958.000,V,,,,,0.74,319.12,281023,,,N,V*3F
$GPVTG,319.12,T,,M,0.74,N,1.38,K,N*33
$GPGGA,094958.000,,,,,0,0,,,M,,M,,*41
$GPGSA,A,1,,,,,,,,,,,,,,,,1*03
$GPGSA,A,1,,,,,,,,,,,,,,,,2*00
$GPGSV,3,1,10,09,86,039,18,06,44,244,15,07,40,190,19,11,38,295,25,0*63
$GPGSV,3,2,10,16,21,074,24,20,21,306,28,26,18,045,21,03,16,130,15,0*67
$GPGSV,3,3,10,30,12,205,,29,04,355,,0*6F
$GLGSV,1,1,00,1*78
$GPGLL,,,,,094958.000,V,N*73
$GPTXT,01,01,02,ANTSTATUS=OPEN*2B
$GPRMC,094959.000,V,,,,,0.46,319.12,281023,,,N,V*3F
$GPVTG,319.12,T,,M,0.46,N,0.85,K,N*35
$GPGGA,094959.000,,,,,0,0,,,M,,M,,*40
$GPGSA,A,1,,,,,,,,,,,,,,,,1*03
$GPGSA,A,1,,,,,,,,,,,,,,,,2*00
$GPGSV,3,1,10,09,86,039,18,06,44,244,15,07,40,190,19,11,38,295,24,0*62
$GPGSV,3,2,10,20,22,306,28,16,21,074,24,26,18,045,21,03,16,130,15,0*64
$GPGSV,3,3,10,30,12,205,,29,04,355,,0*6F
$GLGSV,1,1,00,1*78
$GPGLL,,,,,094959.000,V,N*72
$GPTXT,01,01,02,ANTSTATUS=OPEN*2B
$GPRMC,095000.000,V,,,,,0.44,319.12,281023,,,N,V*39
$GPVTG,319.12,T,,M,0.44,N,0.82,K,N*30
$GPGGA,095000.000,,,,,0,0,,,M,,M,,*44
$GPGSA,A,1,,,,,,,,,,,,,,,,1*03
$GPGSA,A,1,,,,,,,,,,,,,,,,2*00
$GPGSV,3,1,10,09,86,039,18,06,44,244,15,07,40,190,19,11,38,295,24,0*62
$GPGSV,3,2,10,20,22,306,28,16,21,074,24,26,18,045,21,03,16,130,14,0*65
$GPGSV,3,3,10,30,12,205,,29,04,355,,0*6F
$GLGSV,1,1,00,1*78
$GPGLL,,,,,095000.000,V,N*76
$GPTXT,01,01,02,ANTSTATUS=OPEN*2B
$GNRMC,095001.000,A,5216.6916,N,02048.5544,E,0.56,319.12,281023,,,A,V*00
$GPVTG,319.12,T,,M,0.56,N,1.03,K,A*34
$GPGGA,095001.000,5216.6916,N,02048.5544,E,1,5,1.31,75.4,M,39.0,M,,*6D
$GNGSA,A,3,16,20,11,03,06,,,,,,,,1.63,1.31,0.97,1*08
$GNGSA,A,3,,,,,,,,,,,,,1.63,1.31,0.97,2*0B
$GPGSV,3,1,11,09,86,039,18,06,44,244,15,07,40,190,19,11,38,295,24,0*63
$GPGSV,3,2,11,37,30,179,,20,22,306,28,16,21,074,24,26,18,045,21,0*6F
$GPGSV,3,3,11,03,16,130,14,30,12,205,,29,04,355,,0*5D
$GLGSV,1,1,00,1*78
$GNGLL,5216.6916,N,02048.5544,E,095001.000,A,A*4C
$GPTXT,01,01,02,ANTSTATUS=OPEN*2B
$GNRMC,095002.000,A,5216.6917,N,02048.5542,E,0.59,334.65,281023,,,A,V*04
$GPVTG,334.65,T,,M,0.59,N,1.09,K,A*3E
$GPGGA,095002.000,5216.6917,N,02048.5542,E,1,5,1.31,75.7,M,39.0,M,,*6A
$GNGSA,A,3,16,20,11,03,06,,,,,,,,1.63,1.31,0.97,1*08
$GNGSA,A,3,,,,,,,,,,,,,1.63,1.31,0.97,2*0B
$GPGSV,3,1,11,09,86,039,18,06,44,244,16,07,40,190,19,11,38,295,24,0*60
$GPGSV,3,2,11,37,30,179,,20,22,306,28,16,21,074,24,26,18,045,21,0*6F
$GPGSV,3,3,11,03,16,130,14,30,12,205,,29,04,355,,0*5D
$GLGSV,1,1,00,1*78
$GNGLL,5216.6917,N,02048.5542,E,095002.000,A,A*48
$GPTXT,01,01,02,ANTSTATUS=OPEN*2B
$GNRMC,095003.000,A,5216.6915,N,02048.5539,E,0.42,334.65,281023,,,A,V*01
$GPVTG,334.65,T,,M,0.42,N,0.78,K,A*33
$GPGGA,095003.000,5216.6915,N,02048.5539,E,1,5,1.31,75.9,M,39.0,M,,*6B
$GNGSA,A,3,16,20,11,03,06,,,,,,,,1.63,1.31,0.97,1*08
$GNGSA,A,3,,,,,,,,,,,,,1.63,1.31,0.97,2*0B
$GPGSV,3,1,11,09,86,039,18,06,44,244,16,07,40,190,19,11,38,295,24,0*60
$GPGSV,3,2,11,37,30,179,,20,22,306,28,16,21,074,24,26,18,045,21,0*6F
$GPGSV,3,3,11,03,16,130,14,30,12,205,,29,04,355,,0*5D
$GLGSV,1,1,00,1*78
$GNGLL,5216.6915,N,02048.5539,E,095003.000,A,A*47
$GPTXT,01,01,02,ANTSTATUS=OPEN*2B
$GNRMC,095004.000,A,5216.6916,N,02048.5539,E,0.51,334.65,281023,,,A,V*07
$GPVTG,334.65,T,,M,0.51,N,0.95,K,A*32
$GPGGA,095004.000,5216.6916,N,02048.5539,E,1,5,1.31,75.9,M,39.0,M,,*6F
$GNGSA,A,3,16,20,11,03,06,,,,,,,,1.63,1.31,0.97,1*08
$GNGSA,A,3,,,,,,,,,,,,,1.63,1.31,0.97,2*0B
$GPGSV,3,1,11,09,86,039,18,06,44,244,16,07,40,190,19,11,38,295,24,0*60
$GPGSV,3,2,11,37,30,179,,20,22,306,28,16,21,074,24,26,18,045,21,0*6F
$GPGSV,3,3,11,03,16,130,14,30,12,205,,29,04,355,,0*5D
$GLGSV,1,1,00,1*78
$GNGLL,5216.6916,N,02048.5539,E,095004.000,A,A*43
$GPTXT,01,01,02,ANTSTATUS=OPEN*2B
$GNRMC,095005.000,A,5216.6915,N,02048.5536,E,0.41,334.65,281023,,,A,V*0B
$GPVTG,334.65,T,,M,0.41,N,0.76,K,A*3E
$GPGGA,095005.000,5216.6915,N,02048.5536,E,1,5,1.31,75.8,M,39.0,M,,*63
$GNGSA,A,3,16,20,11,03,06,,,,,,,,1.63,1.31,0.97,1*08
$GNGSA,A,3,,,,,,,,,,,,,1.63,1.31,0.97,2*0B
$GPGSV,3,1,11,09,86,039,18,06,44,244,15,07,40,190,19,11,38,295,24,0*63
$GPGSV,3,2,11,37,30,179,,20,22,306,28,16,21,074,24,26,18,045,21,0*6F
$GPGSV,3,3,11,03,16,130,15,30,12,205,,29,04,355,,0*5C
$GLGSV,1,1,00,1*78
$GNGLL,5216.6915,N,02048.5536,E,095005.000,A,A*4E
$GPTXT,01,01,02,ANTSTATUS=OPEN*2B
$GNRMC,095006.000,A,5216.6913,N,02048.5534,E,0.34,334.65,281023,,,A,V*0E
$GPVTG,334.65,T,,M,0.34,N,0.63,K,A*38
$GPGGA,095006.000,5216.6913,N,02048.5534,E,1,5,1.31,75.4,M,39.0,M,,*68
$GNGSA,A,3,16,20,11,03,06,,,,,,,,1.63,1.31,0.97,1*08
$GNGSA,A,3,,,,,,,,,,,,,1.63,1.31,0.97,2*0B
$GPGSV,3,1,11,09,86,039,17,06,44,244,15,07,40,190,19,11,38,295,24,0*6C
$GPGSV,3,2,11,37,30,179,,20,22,306,28,16,21,074,24,26,18,045,21,0*6F
$GPGSV,3,3,11,03,16,130,14,30,12,205,,29,04,355,,0*5D
$GLGSV,1,1,00,1*78
$GNGLL,5216.6913,N,02048.5534,E,095006.000,A,A*49
$GPTXT,01,01,02,ANTSTATUS=OPEN*2B
$GNRMC,095007.000,A,5216.6913,N,02048.5532,E,0.39,334.65,281023,,,A,V*04
$GPVTG,334.65,T,,M,0.39,N,0.72,K,A*35
$GPGGA,095007.000,5216.6913,N,02048.5532,E,1,5,1.31,74.2,M,39.0,M,,*68
$GNGSA,A,3,16,20,11,03,06,,,,,,,,1.63,1.31,0.97,1*08
$GNGSA,A,3,,,,,,,,,,,,,1.63,1.31,0.97,2*0B
$GPGSV,3,1,11,09,86,039,17,06,44,244,14,07,40,190,19,11,38,295,24,0*6D
$GPGSV,3,2,11,37,30,179,,20,22,306,28,16,21,074,24,26,18,045,21,0*6F
$GPGSV,3,3,11,03,16,130,13,30,12,205,,29,04,355,,0*5A
$GLGSV,1,1,00,1*78
$GNGLL,5216.6913,N,02048.5532,E,095007.000,A,A*4E
$GPTXT,01,01,02,ANTSTATUS=OPEN*2B
$GNRMC,095008.000,A,5216.6912,N,02048.5529,E,0.43,334.65,281023,,,A,V*0D
$GPVTG,334.65,T,,M,0.43,N,0.80,K,A*35
$GPGGA,095008.000,5216.6912,N,02048.5529,E,1,5,1.31,73.0,M,39.0,M,,*69
$GNGSA,A,3,16,20,11,03,06,,,,,,,,1.63,1.31,0.97,1*08
$GNGSA,A,3,,,,,,,,,,,,,1.63,1.31,0.97,2*0B
$GPGSV,3,1,11,09,86,039,17,06,44,244,15,07,40,190,21,11,38,295,24,0*67
$GPGSV,3,2,11,37,30,179,,20,22,306,28,16,21,074,24,26,18,045,21,0*6F
$GPGSV,3,3,11,03,16,130,11,30,12,205,,29,04,355,,0*58
$GLGSV,1,1,00,1*78
$GNGLL,5216.6912,N,02048.5529,E,095008.000,A,A*4A
$GPTXT,01,01,02,ANTSTATUS=OPEN*2B
$GNRMC,095009.000,A,5216.6911,N,02048.5525,E,0.23,334.65,281023,,,A,V*05
$GPVTG,334.65,T,,M,0.23,N,0.43,K,A*3C
$GPGGA,095009.000,5216.6911,N,02048.5525,E,1,4,1.77,72.8,M,39.0,M,,*6D
$GNGSA,A,3,16,20,11,06,,,,,,,,,2.03,1.77,0.99,1*02
$GNGSA,A,3,,,,,,,,,,,,,2.03,1.77,0.99,2*02
$GPGSV,3,1,11,09,86,039,17,06,44,244,15,07,40,190,21,11,38,295,23,0*60
$GPGSV,3,2,11,37,30,179,,20,22,306,28,16,21,074,24,26,18,045,21,0*6F
$GPGSV,3,3,11,03,16,130,15,30,12,205,,29,04,355,,0*5C
$GLGSV,1,1,00,1*78
$GNGLL,5216.6911,N,02048.5525,E,095009.000,A,A*44
$GPTXT,01,01,02,ANTSTATUS=OPEN*2B
$GNRMC,095010.000,A,5216.6910,N,02048.5522,E,0.21,334.65,281023,,,A,V*09
$GPVTG,334.65,T,,M,0.21,N,0.39,K,A*33
$GPGGA,095010.000,5216.6910,N,02048.5522,E,1,4,1.77,72.9,M,39.0,M,,*62
$GNGSA,A,3,16,20,11,06,,,,,,,,,2.02,1.77,0.99,1*03
$GNGSA,A,3,,,,,,,,,,,,,2.02,1.77,0.99,2*03
$GPGSV,3,1,11,09,86,039,17,06,44,244,14,07,40,190,20,11,38,295,23,0*60
$GPGSV,3,2,11,37,30,179,,20,22,306,28,16,21,074,24,26,18,045,21,0*6F
$GPGSV,3,3,11,03,16,130,12,30,12,205,,29,04,355,,0*5B
$GLGSV,1,1,00,1*78
$GNGLL,5216.6910,N,02048.5522,E,095010.000,A,A*4A
$GPTXT,01,01,02,ANTSTATUS=OPEN*2B
$GNRMC,095011.000,A,5216.6910,N,02048.5521,E,0.18,334.65,281023,,,A,V*01
$GPVTG,334.65,T,,M,0.18,N,0.33,K,A*33
$GPGGA,095011.000,5216.6910,N,02048.5521,E,1,4,1.76,73.0,M,39.0,M,,*69
$GNGSA,A,3,16,20,11,06,,,,,,,,,2.02,1.76,0.99,1*02
$GNGSA,A,3,,,,,,,,,,,,,2.02,1.76,0.99,2*02
$GPGSV,3,1,11,09,86,039,16,06,44,244,13,07,40,190,19,11,38,295,23,0*6C
$GPGSV,3,2,11,39,29,174,,20,22,306,28,16,21,074,23,26,18,045,21,0*63
$GPGSV,3,3,11,03,16,130,15,30,12,205,,29,04,355,,0*5C
$GLGSV,1,1,00,1*78
$GNGLL,5216.6910,N,02048.5521,E,095011.000,A,A*48
$GPTXT,01,01,02,ANTSTATUS=OPEN*2B
$GNRMC,095012.000,A,5216.6911,N,02048.5523,E,0.22,334.65,281023,,,A,V*08
$GPVTG,334.65,T,,M,0.22,N,0.41,K,A*3F
$GPGGA,095012.000,5216.6911,N,02048.5523,E,1,5,1.31,73.3,M,39.0,M,,*68
$GNGSA,A,3,16,20,11,03,06,,,,,,,,1.63,1.31,0.97,1*08
$GNGSA,A,3,,,,,,,,,,,,,1.63,1.31,0.97,2*0B
$GPGSV,3,1,11,09,86,039,17,06,44,244,15,07,40,190,19,11,38,295,23,0*6B
$GPGSV,3,2,11,39,29,174,,20,22,306,28,16,21,074,23,26,18,045,21,0*63
$GPGSV,3,3,11,03,16,130,15,30,12,205,,29,04,355,,0*5C
$GLGSV,1,1,00,1*78
$GNGLL,5216.6911,N,02048.5523,E,095012.000,A,A*48
$GPTXT,01,01,02,ANTSTATUS=OPEN*2B
$GNRMC,095013.000,A,5216.6911,N,02048.5522,E,0.21,334.65,281023,,,A,V*0B
$GPVTG,334.65,T,,M,0.21,N,0.38,K,A*32
$GPGGA,095013.000,5216.6911,N,02048.5522,E,1,5,1.31,73.6,M,39.0,M,,*6D
$GNGSA,A,3,16,20,11,03,06,,,,,,,,1.63,1.31,0.97,1*08
$GNGSA,A,3,,,,,,,,,,,,,1.63,1.31,0.97,2*0B
$GPGSV,3,1,11,09,86,039,17,06,44,244,13,07,40,190,19,11,38,295,23,0*6D
$GPGSV,3,2,11,39,29,174,,20,22,306,28,16,21,074,23,26,18,045,21,0*63
$GPGSV,3,3,11,03,16,130,14,30,12,205,,29,04,355,,0*5D
$GLGSV,1,1,00,1*78
$GNGLL,5216.6911,N,02048.5522,E,095013.000,A,A*48
$GPTXT,01,01,02,ANTSTATUS=OPEN*2B
$GNRMC,095014.000,A,5216.6915,N,02048.5524,E,0.34,334.65,281023,,,A,V*0A
$GPVTG,334.65,T,,M,0.34,N,0.63,K,A*38
$GPGGA,095014.000,5216.6915,N,02048.5524,E,1,5,1.31,73.8,M,39.0,M,,*66
$GNGSA,A,3,16,20,11,03,06,,,,,,,,1.63,1.31,0.97,1*08
$GNGSA,A,3,,,,,,,,,,,,,1.63,1.31,0.97,2*0B
$GPGSV,3,1,11,09,86,039,17,06,44,244,14,07,40,190,19,11,38,295,23,0*6A
$GPGSV,3,2,11,39,29,174,,20,22,306,28,16,21,074,23,26,18,045,21,0*63
$GPGSV,3,3,11,03,16,130,17,30,12,205,,29,04,355,,0*5E
$GLGSV,1,1,00,1*78
$GNGLL,5216.6915,N,02048.5524,E,095014.000,A,A*4D
$GPTXT,01,01,02,ANTSTATUS=OPEN*2B
$GNRMC,095015.000,A,5216.6917,N,02048.5524,E,0.41,334.65,281023,,,A,V*0B
$GPVTG,334.65,T,,M,0.41,N,0.76,K,A*3E
$GPGGA,095015.000,5216.6917,N,02048.5524,E,1,5,1.31,74.4,M,39.0,M,,*6E
$GNGSA,A,3,16,20,11,03,06,,,,,,,,1.63,1.31,0.97,1*08
$GNGSA,A,3,,,,,,,,,,,,,1.63,1.31,0.97,2*0B
$GPGSV,3,1,11,09,86,039,17,06,44,244,15,07,40,190,19,11,38,295,23,0*6B
$GPGSV,3,2,11,39,29,174,,20,22,306,28,16,21,074,23,26,18,045,20,0*62
$GPGSV,3,3,11,03,16,130,16,30,12,205,,29,04,355,,0*5F
$GLGSV,1,1,00,1*78
$GNGLL,5216.6917,N,02048.5524,E,095015.000,A,A*4E
$GPTXT,01,01,02,ANTSTATUS=OPEN*2B
$GNRMC,095016.000,A,5216.6920,N,02048.5525,E,0.45,334.65,281023,,,A,V*09
$GPVTG,334.65,T,,M,0.45,N,0.83,K,A*30
$GPGGA,095016.000,5216.6920,N,02048.5525,E,1,4,1.68,74.6,M,39.0,M,,*67
$GNGSA,A,3,16,20,11,03,,,,,,,,,1.95,1.68,0.98,1*04
$GNGSA,A,3,,,,,,,,,,,,,1.95,1.68,0.98,2*01
$GPGSV,3,1,11,09,86,039,17,06,44,244,15,07,40,190,19,11,38,295,23,0*6B
$GPGSV,3,2,11,39,29,174,,20,22,306,28,16,21,074,23,26,18,045,20,0*62
$GPGSV,3,3,11,03,16,130,15,30,12,205,,29,04,355,,0*5C
$GLGSV,1,1,00,1*78
$GNGLL,5216.6920,N,02048.5525,E,095016.000,A,A*48
$GPTXT,01,01,02,ANTSTATUS=OPEN*2B
$GNRMC,095017.000,A,5216.6920,N,02048.5527,E,0.47,334.65,281023,,,A,V*08
$GPVTG,334.65,T,,M,0.47,N,0.88,K,A*39
$GPGGA,095017.000,5216.6920,N,02048.5527,E,1,4,1.68,74.6,M,39.0,M,,*64
$GNGSA,A,3,16,20,11,03,,,,,,,,,1.95,1.68,0.98,1*04
$GNGSA,A,3,,,,,,,,,,,,,1.95,1.68,0.98,2*01
$GPGSV,3,1,11,09,86,039,17,06,44,244,16,07,40,190,19,11,38,295,23,0*68
$GPGSV,3,2,11,39,29,174,,20,22,306,28,16,21,074,23,26,18,045,20,0*62
$GPGSV,3,3,11,03,16,130,15,30,12,205,,29,04,355,,0*5C
$GLGSV,1,1,00,1*78
$GNGLL,5216.6920,N,02048.5527,E,095017.000,A,A*4B
$GPTXT,01,01,02,ANTSTATUS=OPEN*2B
$GNRMC,095018.000,A,5216.6921,N,02048.5527,E,0.42,334.65,281023,,,A,V*03
$GPVTG,334.65,T,,M,0.42,N,0.79,K,A*32
$GPGGA,095018.000,5216.6921,N,02048.5527,E,1,5,1.30,74.7,M,39.0,M,,*67
$GNGSA,A,3,16,20,11,03,06,,,,,,,,1.63,1.30,0.97,1*09
$GNGSA,A,3,,,,,,,,,,,,,1.63,1.30,0.97,2*0A
$GPGSV,3,1,11,09,86,039,17,06,44,244,14,07,40,190,19,11,38,295,23,0*6A
$GPGSV,3,2,11,39,29,174,,20,22,306,28,16,21,074,23,26,18,045,20,0*62
$GPGSV,3,3,11,03,16,130,15,30,12,205,,29,04,355,,0*5C
$GLGSV,1,1,00,1*78
$GNGLL,5216.6921,N,02048.5527,E,095018.000,A,A*45
$GPTXT,01,01,02,ANTSTATUS=OPEN*2B
$GNRMC,095019.000,A,5216.6920,N,02048.5524,E,0.35,334.65,281023,,,A,V*00
$GPVTG,334.65,T,,M,0.35,N,0.65,K,A*3F
$GPGGA,095019.000,5216.6920,N,02048.5524,E,1,5,1.30,74.8,M,39.0,M,,*6B
$GNGSA,A,3,16,20,11,03,06,,,,,,,,1.63,1.30,0.97,1*09
$GNGSA,A,3,,,,,,,,,,,,,1.63,1.30,0.97,2*0A
$GPGSV,3,1,11,09,86,039,17,06,44,244,15,07,40,190,19,11,38,295,23,0*6B
$GPGSV,3,2,11,39,29,174,,20,22,306,27,16,21,074,23,26,18,045,20,0*6D
$GPGSV,3,3,11,03,16,130,15,30,12,205,,29,04,355,,0*5C
$GLGSV,1,1,00,1*78
$GNGLL,5216.6920,N,02048.5524,E,095019.000,A,A*46
$GPTXT,01,01,02,ANTSTATUS=OPEN*2B
$GNRMC,095020.000,A,5216.6922,N,02048.5527,E,0.35,334.65,281023,,,A,V*0B
$GPVTG,334.65,T,,M,0.35,N,0.64,K,A*3E
$GPGGA,095020.000,5216.6922,N,02048.5527,E,1,5,1.31,74.8,M,39.0,M,,*61
$GNGSA,A,3,16,20,11,03,06,,,,,,,,1.63,1.31,0.97,1*08
$GNGSA,A,3,,,,,,,,,,,,,1.63,1.31,0.97,2*0B
$GPGSV,3,1,11,09,86,039,17,06,44,244,16,07,40,190,19,11,38,295,23,0*68
$GPGSV,3,2,11,20,22,306,28,16,21,074,23,33,21,222,,26,18,045,20,0*60
$GPGSV,3,3,11,03,16,130,14,30,12,205,,29,04,355,,0*5D
$GLGSV,1,1,00,1*78
$GNGLL,5216.6922,N,02048.5527,E,095020.000,A,A*4D
$GPTXT,01,01,02,ANTSTATUS=OPEN*2B
$GNRMC,095021.000,A,5216.6924,N,02048.5525,E,0.32,334.65,281023,,,A,V*09
$GPVTG,334.65,T,,M,0.32,N,0.59,K,A*37
$GPGGA,095021.000,5216.6924,N,02048.5525,E,1,5,1.30,74.7,M,39.0,M,,*6A
$GNGSA,A,3,16,20,11,03,06,,,,,,,,1.63,1.30,0.97,1*09
$GNGSA,A,3,,,,,,,,,,,,,1.63,1.30,0.97,2*0A
$GPGSV,3,1,11,09,86,039,17,06,44,244,17,07,40,190,19,11,38,295,23,0*69
$GPGSV,3,2,11,20,22,306,28,16,21,074,23,33,21,222,,26,18,045,20,0*60
$GPGSV,3,3,11,03,16,130,16,30,12,205,,29,04,355,,0*5F
$GLGSV,1,1,00,1*78
$GNGLL,5216.6924,N,02048.5525,E,095021.000,A,A*48
$GPTXT,01,01,02,ANTSTATUS=OPEN*2B
$GNRMC,095022.000,A,5216.6934,N,02048.5527,E,0.00,334.65,281023,,,A,V*08
$GPVTG,334.65,T,,M,0.00,N,0.00,K,A*3A
$GPGGA,095022.000,5216.6934,N,02048.5527,E,1,5,1.30,75.0,M,39.0,M,,*6C
$GNGSA,A,3,16,20,11,03,06,,,,,,,,1.63,1.30,0.97,1*09
$GNGSA,A,3,,,,,,,,,,,,,1.63,1.30,0.97,2*0A
$GPGSV,3,1,11,09,86,039,17,06,44,244,17,07,40,190,19,11,38,295,23,0*69
$GPGSV,3,2,11,20,22,306,28,16,21,074,23,33,21,222,,26,18,045,20,0*60
$GPGSV,3,3,11,03,16,130,16,30,12,205,,29,04,355,,0*5F
$GLGSV,1,1,00,1*78
$GNGLL,5216.6934,N,02048.5527,E,095022.000,A,A*48
$GPTXT,01,01,02,ANTSTATUS=OPEN*2B
$GNRMC,095023.000,A,5216.6935,N,02048.5527,E,0.00,334.65,281023,,,A,V*08
$GPVTG,334.65,T,,M,0.00,N,0.00,K,A*3A
$GPGGA,095023.000,5216.6935,N,02048.5527,E,1,5,1.30,75.4,M,39.0,M,,*68
$GNGSA,A,3,16,20,11,03,06,,,,,,,,1.63,1.30,0.97,1*09
$GNGSA,A,3,,,,,,,,,,,,,1.63,1.30,0.97,2*0A
$GPGSV,3,1,11,09,86,039,17,06,44,244,17,07,40,190,19,11,38,295,23,0*69
$GPGSV,3,2,11,20,22,306,28,16,21,074,24,33,21,222,,26,18,045,20,0*67
$GPGSV,3,3,11,03,16,130,16,30,12,205,,29,04,355,,0*5F
$GLGSV,1,1,00,1*78
$GNGLL,5216.6935,N,02048.5527,E,095023.000,A,A*48
$GPTXT,01,01,02,ANTSTATUS=OPEN*2B
$GNRMC,095024.000,A,5216.6936,N,02048.5529,E,0.00,334.65,281023,,,A,V*02
$GPVTG,334.65,T,,M,0.00,N,0.00,K,A*3A
$GPGGA,095024.000,5216.6936,N,02048.5529,E,1,5,1.30,76.1,M,39.0,M,,*64
$GNGSA,A,3,16,20,11,03,06,,,,,,,,1.63,1.30,0.97,1*09
$GNGSA,A,3,,,,,,,,,,,,,1.63,1.30,0.97,2*0A
$GPGSV,3,1,11,09,86,039,17,06,44,244,17,07,40,190,19,11,38,295,23,0*69
$GPGSV,3,2,11,20,22,306,28,16,21,074,24,33,21,222,,26,18,045,20,0*67
$GPGSV,3,3,11,03,16,130,16,30,12,205,,29,04,355,,0*5F
$GLGSV,1,1,00,1*78
$GNGLL,5216.6936,N,02048.5529,E,095024.000,A,A*42
$GPTXT,01,01,02,ANTSTATUS=OPEN*2B
$GNRMC,095025.000,A,5216.6936,N,02048.5529,E,0.00,334.65,281023,,,A,V*03
$GPVTG,334.65,T,,M,0.00,N,0.00,K,A*3A
$GPGGA,095025.000,5216.6936,N,02048.5529,E,1,5,1.30,76.1,M,39.0,M,,*65
$GNGSA,A,3,16,20,11,03,06,,,,,,,,1.63,1.30,0.97,1*09
$GNGSA,A,3,,,,,,,,,,,,,1.63,1.30,0.97,2*0A
$GPGSV,3,1,11,09,86,039,17,06,44,244,17,07,40,190,19,11,38,295,23,0*69
$GPGSV,3,2,11,20,22,306,28,16,21,074,24,33,21,222,,26,18,045,20,0*67
$GPGSV,3,3,11,03,16,130,16,30,12,205,,29,04,355,,0*5F
$GLGSV,1,1,00,1*78
$GNGLL,5216.6936,N,02048.5529,E,095025.000,A,A*43
$GPTXT,01,01,02,ANTSTATUS=OPEN*2B
$GNRMC,095026.000,A,5216.6936,N,02048.5529,E,1.62,0.19,281023,,,A,V*0A
$GPVTG,0.19,T,,M,1.62,N,3.01,K,A*32
$GPGGA,095026.000,5216.6936,N,02048.5529,E,1,5,1.30,76.1,M,39.0,M,,*66
$GNGSA,A,3,16,20,11,03,06,,,,,,,,1.63,1.30,0.97,1*09
$GNGSA,A,3,,,,,,,,,,,,,1.63,1.30,0.97,2*0A
$GPGSV,3,1,11,09,86,039,17,06,44,244,17,07,40,190,19,11,38,295,23,0*69
$GPGSV,3,2,11,20,22,306,28,16,21,074,24,33,21,222,,26,18,045,20,0*67
$GPGSV,3,3,11,03,16,130,17,30,12,205,,29,04,355,,0*5E
$GLGSV,1,1,00,1*78
$GNGLL,5216.6936,N,02048.5529,E,095026.000,A,A*40
$GPTXT,01,01,02,ANTSTATUS=OPEN*2B
$GNRMC,095027.000,A,5216.6936,N,02048.5529,E,0.00,334.65,281023,,,A,V*01
$GPVTG,334.65,T,,M,0.00,N,0.00,K,A*3A
$GPGGA,095027.000,5216.6936,N,02048.5529,E,1,5,1.30,76.1,M,39.0,M,,*67
$GNGSA,A,3,16,20,11,03,06,,,,,,,,1.63,1.30,0.97,1*09
$GNGSA,A,3,,,,,,,,,,,,,1.63,1.30,0.97,2*0A
$GPGSV,3,1,11,09,86,039,17,06,44,244,17,07,40,190,19,11,38,295,23,0*69
$GPGSV,3,2,11,20,22,306,28,16,21,074,24,33,21,222,,26,18,045,20,0*67
$GPGSV,3,3,11,03,16,130,17,30,12,205,,29,04,355,,0*5E
$GLGSV,1,1,00,1*78
$GNGLL,5216.6936,N,02048.5529,E,095027.000,A,A*41
$GPTXT,01,01,02,ANTSTATUS=OPEN*2B
$GNRMC,095028.000,A,5216.6936,N,02048.5529,E,0.00,334.65,281023,,,A,V*0E
$GPVTG,334.65,T,,M,0.00,N,0.00,K,A*3A
$GPGGA,095028.000,5216.6936,N,02048.5529,E,1,5,1.30,76.1,M,39.0,M,,*68
$GNGSA,A,3,16,20,11,03,06,,,,,,,,1.63,1.30,0.97,1*09
$GNGSA,A,3,,,,,,,,,,,,,1.63,1.30,0.97,2*0A
$GPGSV,3,1,11,09,86,039,17,06,44,244,17,07,40,190,19,11,38,295,23,0*69
$GPGSV,3,2,11,20,22,306,28,16,21,074,24,33,21,222,,26,18,045,20,0*67
$GPGSV,3,3,11,03,16,130,17,30,12,205,,29,04,355,,0*5E
$GLGSV,1,1,00,1*78
$GNGLL,5216.6936,N,02048.5529,E,095028.000,A,A*4E
$GPTXT,01,01,02,ANTSTATUS=OPEN*2B
$GNRMC,095029.000,A,5216.6936,N,02048.5529,E,0.00,334.65,281023,,,A,V*0F
$GPVTG,334.65,T,,M,0.00,N,0.00,K,A*3A
$GPGGA,095029.000,5216.6936,N,02048.5529,E,1,5,1.30,76.1,M,39.0,M,,*69
$GNGSA,A,3,16,20,11,03,06,,,,,,,,1.63,1.30,0.97,1*09
$GNGSA,A,3,,,,,,,,,,,,,1.63,1.30,0.97,2*0A
$GPGSV,3,1,11,09,86,039,17,06,44,244,18,07,40,190,19,11,38,295,23,0*66
$GPGSV,3,2,11,20,22,306,28,16,21,074,24,26,18,045,20,40,18,130,,0*69
$GPGSV,3,3,11,03,16,130,17,30,12,205,,29,04,355,,0*5E
$GLGSV,1,1,00,1*78
$GNGLL,5216.6936,N,02048.5529,E,095029.000,A,A*4F
$GPTXT,01,01,02,ANTSTATUS=OPEN*2B
$GNRMC,095030.000,A,5216.6936,N,02048.5529,E,0.00,334.65,281023,,,A,V*07
$GPVTG,334.65,T,,M,0.00,N,0.00,K,A*3A
$GPGGA,095030.000,5216.6936,N,02048.5529,E,1,5,1.30,76.1,M,39.0,M,,*61
$GNGSA,A,3,16,20,11,03,06,,,,,,,,1.63,1.30,0.97,1*09
$GNGSA,A,3,,,,,,,,,,,,,1.63,1.30,0.97,2*0A
$GPGSV,3,1,11,09,86,039,17,06,44,244,18,07,40,190,20,11,38,295,23,0*6C
$GPGSV,3,2,11,20,22,306,28,16,21,074,24,26,18,045,20,40,18,130,,0*69
$GPGSV,3,3,11,03,16,130,17,30,12,205,,29,04,355,,0*5E
$GLGSV,1,1,00,1*78
$GNGLL,5216.6936,N,02048.5529,E,095030.000,A,A*47
$GPTXT,01,01,02,ANTSTATUS=OPEN*2B
$GNRMC,095031.000,A,5216.6936,N,02048.5529,E,0.83,0.19,281023,,,A,V*02
$GPVTG,0.19,T,,M,0.83,N,1.53,K,A*39
$GPGGA,095031.000,5216.6936,N,02048.5529,E,1,5,1.30,76.1,M,39.0,M,,*60
$GNGSA,A,3,16,20,11,03,06,,,,,,,,1.62,1.30,0.97,1*08
$GNGSA,A,3,,,,,,,,,,,,,1.62,1.30,0.97,2*0B
$GPGSV,3,1,11,09,86,039,17,06,44,244,18,07,40,190,19,11,38,295,23,0*66
$GPGSV,3,2,11,20,22,306,28,16,21,074,24,26,18,045,20,40,18,130,,0*69
$GPGSV,3,3,11,03,16,130,17,30,12,205,,29,04,355,,0*5E
$GLGSV,1,1,00,1*78
$GNGLL,5216.6936,N,02048.5529,E,095031.000,A,A*46
$GPTXT,01,01,02,ANTSTATUS=OPEN*2B
$GNRMC,095032.000,A,5216.6979,N,02048.5554,E,0.88,0.19,281023,,,A,V*0B
$GPVTG,0.19,T,,M,0.88,N,1.63,K,A*31
$GPGGA,095032.000,5216.6979,N,02048.5554,E,1,5,1.30,80.1,M,39.0,M,,*6B
$GNGSA,A,3,16,20,11,03,06,,,,,,,,1.62,1.30,0.97,1*08
$GNGSA,A,3,,,,,,,,,,,,,1.62,1.30,0.97,2*0B
$GPGSV,3,1,11,09,86,039,17,06,44,244,18,07,40,190,19,11,38,295,23,0*66
$GPGSV,3,2,11,20,22,306,28,16,21,074,24,26,18,045,19,40,18,130,,0*63
$GPGSV,3,3,11,03,16,130,18,30,12,205,,29,04,355,,0*51
$GLGSV,1,1,00,1*78
$GNGLL,5216.6979,N,02048.5554,E,095032.000,A,A*44
$GPTXT,01,01,02,ANTSTATUS=OPEN*2B
$GNRMC,095033.000,A,5216.6981,N,02048.5556,E,0.00,0.19,281023,,,A,V*0F
$GPVTG,0.19,T,,M,0.00,N,0.00,K,A*35
$GPGGA,095033.000,5216.6981,N,02048.5556,E,1,5,1.30,80.4,M,39.0,M,,*6A
$GNGSA,A,3,16,20,11,03,06,,,,,,,,1.63,1.30,0.97,1*09
$GNGSA,A,3,,,,,,,,,,,,,1.63,1.30,0.97,2*0A
$GPGSV,3,1,11,09,86,039,17,06,44,244,18,07,40,190,19,11,38,295,23,0*66
$GPGSV,3,2,11,20,22,306,28,16,21,074,24,26,18,045,19,40,18,130,,0*63
$GPGSV,3,3,11,03,16,130,18,30,12,205,,29,04,355,,0*51
$GLGSV,1,1,00,1*78
$GNGLL,5216.6981,N,02048.5556,E,095033.000,A,A*40
$GPTXT,01,01,02,ANTSTATUS=OPEN*2B
$GNRMC,095034.000,A,5216.6986,N,02048.5558,E,0.00,0.19,281023,,,A,V*01
$GPVTG,0.19,T,,M,0.00,N,0.00,K,A*35
$GPGGA,095034.000,5216.6986,N,02048.5558,E,1,5,1.30,80.7,M,39.0,M,,*67
$GNGSA,A,3,16,20,11,03,06,,,,,,,,1.62,1.30,0.97,1*08
$GNGSA,A,3,,,,,,,,,,,,,1.62,1.30,0.97,2*0B
$GPGSV,3,1,11,09,86,039,17,06,44,244,18,07,40,190,19,11,38,295,23,0*66
$GPGSV,3,2,11,20,22,306,28,16,21,074,24,26,18,045,19,40,18,130,,0*63
$GPGSV,3,3,11,03,16,130,17,30,12,205,,29,04,355,,0*5E
$GLGSV,1,1,00,1*78
$GNGLL,5216.6986,N,02048.5558,E,095034.000,A,A*4E
$GPTXT,01,01,02,ANTSTATUS=OPEN*2B
$GNRMC,095035.000,A,5216.6991,N,02048.5559,E,0.00,0.19,281023,,,A,V*07
$GPVTG,0.19,T,,M,0.00,N,0.00,K,A*35
$GPGGA,095035.000,5216.6991,N,02048.5559,E,1,5,1.30,81.1,M,39.0,M,,*66
$GNGSA,A,3,16,20,11,03,06,,,,,,,,1.63,1.30,0.97,1*09
$GNGSA,A,3,,,,,,,,,,,,,1.63,1.30,0.97,2*0A
$GPGSV,3,1,11,09,86,039,17,06,44,244,18,07,40,190,19,11,38,295,23,0*66
$GPGSV,3,2,11,20,22,306,28,16,21,074,24,26,18,045,19,40,18,130,,0*63
$GPGSV,3,3,11,03,16,130,17,30,12,205,,29,04,355,,0*5E
$GLGSV,1,1,00,1*78
$GNGLL,5216.6991,N,02048.5559,E,095035.000,A,A*48
$GPTXT,01,01,02,ANTSTATUS=OPEN*2B
$GNRMC,095036.000,A,5216.6991,N,02048.5559,E,0.00,0.19,281023,,,A,V*04
$GPVTG,0.19,T,,M,0.00,N,0.00,K,A*35
$GPGGA,095036.000,5216.6991,N,02048.5559,E,1,5,1.30,81.1,M,39.0,M,,*65
$GNGSA,A,3,16,20,11,03,06,,,,,,,,1.62,1.30,0.97,1*08
$GNGSA,A,3,,,,,,,,,,,,,1.62,1.30,0.97,2*0B
$GPGSV,3,1,11,09,86,039,17,06,44,244,18,07,40,190,19,11,38,295,23,0*66
$GPGSV,3,2,11,20,22,306,28,16,21,074,24,26,18,045,19,40,18,130,,0*63
$GPGSV,3,3,11,03,16,130,16,30,12,205,,29,04,355,,0*5F
$GLGSV,1,1,00,1*78
$GNGLL,5216.6991,N,02048.5559,E,095036.000,A,A*4B
$GPTXT,01,01,02,ANTSTATUS=OPEN*2B
$GNRMC,095037.000,A,5216.6991,N,02048.5559,E,0.81,0.19,281023,,,A,V*0C
$GPVTG,0.19,T,,M,0.81,N,1.51,K,A*39
$GPGGA,095037.000,5216.6991,N,02048.5559,E,1,5,1.30,81.1,M,39.0,M,,*64
$GNGSA,A,3,16,20,11,03,06,,,,,,,,1.62,1.30,0.97,1*08
$GNGSA,A,3,,,,,,,,,,,,,1.62,1.30,0.97,2*0B
$GPGSV,3,1,11,09,86,039,17,06,44,244,18,07,40,190,19,11,38,295,23,0*66
$GPGSV,3,2,11,20,22,306,28,16,21,074,24,26,18,045,19,40,18,130,,0*63
$GPGSV,3,3,11,03,16,130,16,30,12,205,,29,04,355,,0*5F
$GLGSV,1,1,00,1*78
$GNGLL,5216.6991,N,02048.5559,E,095037.000,A,A*4A
$GPTXT,01,01,02,ANTSTATUS=OPEN*2B
$GNRMC,095038.000,A,5216.6991,N,02048.5559,E,0.00,0.19,281023,,,A,V*0A
$GPVTG,0.19,T,,M,0.00,N,0.00,K,A*35
$GPGGA,095038.000,5216.6991,N,02048.5559,E,1,5,1.30,81.1,M,39.0,M,,*6B
$GNGSA,A,3,16,20,11,03,06,,,,,,,,1.62,1.30,0.97,1*08
$GNGSA,A,3,,,,,,,,,,,,,1.62,1.30,0.97,2*0B
$GPGSV,3,1,11,09,86,039,17,06,44,244,18,07,40,190,19,11,38,295,23,0*66
$GPGSV,3,2,11,20,22,306,28,16,21,074,24,26,18,045,19,44,17,128,,0*61
$GPGSV,3,3,11,03,16,130,16,30,12,205,,29,04,355,,0*5F
$GLGSV,1,1,00,1*78
$GNGLL,5216.6991,N,02048.5559,E,095038.000,A,A*45
$GPTXT,01,01,02,ANTSTATUS=OPEN*2B
$GNRMC,095039.000,A,5216.6991,N,02048.5559,E,1.41,0.19,281023,,,A,V*0F
$GPVTG,0.19,T,,M,1.41,N,2.62,K,A*37
$GPGGA,095039.000,5216.6991,N,02048.5559,E,1,5,1.30,81.1,M,39.0,M,,*6A
$GNGSA,A,3,16,20,11,03,06,,,,,,,,1.62,1.30,0.97,1*08
$GNGSA,A,3,,,,,,,,,,,,,1.62,1.30,0.97,2*0B
$GPGSV,3,1,11,09,86,039,17,06,44,244,18,07,40,190,20,11,38,295,23,0*6C
$GPGSV,3,2,11,20,22,306,28,16,21,074,24,26,18,045,19,44,17,128,,0*61
$GPGSV,3,3,11,03,16,130,16,30,12,205,,29,04,355,,0*5F
$GLGSV,1,1,00,1*78
$GNGLL,5216.6991,N,02048.5559,E,095039.000,A,A*44
$GPTXT,01,01,02,ANTSTATUS=OPEN*2B
$GNRMC,095040.000,A,5216.6972,N,02048.5557,E,2.20,0.19,281023,,,A,V*06
$GPVTG,0.19,T,,M,2.20,N,4.07,K,A*36
$GPGGA,095040.000,5216.6972,N,02048.5557,E,1,5,1.30,82.1,M,39.0,M,,*64
$GNGSA,A,3,16,20,11,03,06,,,,,,,,1.62,1.30,0.97,1*08
$GNGSA,A,3,,,,,,,,,,,,,1.62,1.30,0.97,2*0B
$GPGSV,3,1,11,09,86,039,17,06,44,244,18,07,40,190,20,11,38,295,23,0*6C
$GPGSV,3,2,11,20,22,306,28,16,21,074,24,26,18,045,19,44,17,128,,0*61
$GPGSV,3,3,11,03,16,130,16,30,12,205,,29,04,355,,0*5F
$GLGSV,1,1,00,1*78
$GNGLL,5216.6972,N,02048.5557,E,095040.000,A,A*49
$GPTXT,01,01,02,ANTSTATUS=OPEN*2B
$GNRMC,095041.000,A,5216.6960,N,02048.5555,E,2.18,0.19,281023,,,A,V*0D
$GPVTG,0.19,T,,M,2.18,N,4.03,K,A*39
$GPGGA,095041.000,5216.6960,N,02048.5555,E,1,5,1.30,83.9,M,39.0,M,,*6D
$GNGSA,A,3,16,20,11,03,06,,,,,,,,1.62,1.30,0.97,1*08
$GNGSA,A,3,,,,,,,,,,,,,1.62,1.30,0.97,2*0B
$GPGSV,3,1,11,09,86,039,17,06,44,244,18,07,40,190,20,11,38,295,23,0*6C
$GPGSV,3,2,11,20,22,306,28,16,21,074,24,26,18,045,19,44,17,128,,0*61
$GPGSV,3,3,11,03,16,130,16,30,12,205,,29,04,355,,0*5F
$GLGSV,1,1,00,1*78
$GNGLL,5216.6960,N,02048.5555,E,095041.000,A,A*49
$GPTXT,01,01,02,ANTSTATUS=OPEN*2B
$GNRMC,095042.000,A,5216.6949,N,02048.5552,E,2.39,0.19,281023,,,A,V*01
$GPVTG,0.19,T,,M,2.39,N,4.42,K,A*3F
$GPGGA,095042.000,5216.6949,N,02048.5552,E,1,5,1.30,84.2,M,39.0,M,,*6E
$GNGSA,A,3,16,20,11,03,06,,,,,,,,1.62,1.30,0.97,1*08
$GNGSA,A,3,,,,,,,,,,,,,1.62,1.30,0.97,2*0B
$GPGSV,3,1,11,09,86,039,17,06,44,244,18,07,40,190,20,11,38,295,23,0*6C
$GPGSV,3,2,11,20,22,306,28,16,21,074,24,26,18,045,19,44,17,128,,0*61
$GPGSV,3,3,11,03,16,130,16,30,12,205,,29,04,355,,0*5F
$GLGSV,1,1,00,1*78
$GNGLL,5216.6949,N,02048.5552,E,095042.000,A,A*46
$GPTXT,01,01,02,ANTSTATUS=OPEN*2B
$GNRMC,095043.000,A,5216.6941,N,02048.5552,E,2.36,0.19,281023,,,A,V*07
$GPVTG,0.19,T,,M,2.36,N,4.37,K,A*32
$GPGGA,095043.000,5216.6941,N,02048.5552,E,1,5,1.30,84.5,M,39.0,M,,*60
$GNGSA,A,3,16,20,11,03,06,,,,,,,,1.62,1.30,0.97,1*08
$GNGSA,A,3,,,,,,,,,,,,,1.62,1.30,0.97,2*0B
$GPGSV,3,1,11,09,86,039,17,06,44,244,18,07,40,190,20,11,38,295,22,0*6D
$GPGSV,3,2,11,20,22,306,28,16,21,074,24,26,18,045,19,44,17,128,,0*61
$GPGSV,3,3,11,03,16,130,16,30,12,205,,29,04,355,,0*5F
$GLGSV,1,1,00,1*78
$GNGLL,5216.6941,N,02048.5552,E,095043.000,A,A*4F
$GPTXT,01,01,02,ANTSTATUS=OPEN*2B
$GNRMC,095044.000,A,5216.6935,N,02048.5546,E,2.81,0.19,281023,,,A,V*0A
$GPVTG,0.19,T,,M,2.81,N,5.21,K,A*38
$GPGGA,095044.000,5216.6935,N,02048.5546,E,1,5,1.30,83.9,M,39.0,M,,*6A
$GNGSA,A,3,16,20,11,03,06,,,,,,,,1.62,1.30,0.97,1*08
$GNGSA,A,3,,,,,,,,,,,,,1.62,1.30,0.97,2*0B
$GPGSV,3,1,11,09,86,039,17,06,44,244,18,07,40,190,20,11,38,295,22,0*6D
$GPGSV,3,2,11,20,22,306,28,16,21,074,24,26,18,045,19,44,17,128,,0*61
$GPGSV,3,3,11,03,16,130,16,30,12,205,,29,04,355,,0*5F
$GLGSV,1,1,00,1*78
$GNGLL,5216.6935,N,02048.5546,E,095044.000,A,A*4E
$GPTXT,01,01,02,ANTSTATUS=OPEN*2B
$GNRMC,095045.000,A,5216.6937,N,02048.5543,E,0.00,0.19,281023,,,A,V*07
$GPVTG,0.19,T,,M,0.00,N,0.00,K,A*35
$GPGGA,095045.000,5216.6937,N,02048.5543,E,1,5,1.30,84.2,M,39.0,M,,*60
$GNGSA,A,3,16,20,11,03,06,,,,,,,,1.62,1.30,0.97,1*08
$GNGSA,A,3,,,,,,,,,,,,,1.62,1.30,0.97,2*0B
$GPGSV,3,1,11,09,86,039,17,06,44,244,18,07,40,190,20,11,38,295,22,0*6D
$GPGSV,3,2,11,20,22,306,28,16,21,074,24,26,18,045,19,44,17,128,,0*61
$GPGSV,3,3,11,03,16,130,15,30,12,205,,29,04,355,,0*5C
$GLGSV,1,1,00,1*78
$GNGLL,5216.6937,N,02048.5543,E,095045.000,A,A*48
$GPTXT,01,01,02,ANTSTATUS=OPEN*2B
$GNRMC,095046.000,A,5216.6940,N,02048.5543,E,0.00,0.19,281023,,,A,V*04
$GPVTG,0.19,T,,M,0.00,N,0.00,K,A*35
$GPGGA,095046.000,5216.6940,N,02048.5543,E,1,5,1.30,84.2,M,39.0,M,,*63
$GNGSA,A,3,16,20,11,03,06,,,,,,,,1.62,1.30,0.97,1*08
$GNGSA,A,3,,,,,,,,,,,,,1.62,1.30,0.97,2*0B
$GPGSV,3,1,11,09,86,039,17,06,44,244,18,07,40,190,20,11,38,295,22,0*6D
$GPGSV,3,2,11,20,22,306,28,16,21,074,24,26,18,045,18,44,17,128,,0*60
$GPGSV,3,3,11,03,16,130,15,30,12,205,,29,04,355,,0*5C
$GLGSV,1,1,00,1*78
$GNGLL,5216.6940,N,02048.5543,E,095046.000,A,A*4B
$GPTXT,01,01,02,ANTSTATUS=OPEN*2B
$GNRMC,095047.000,A,5216.6941,N,02048.5544,E,0.00,0.19,281023,,,A,V*03
$GPVTG,0.19,T,,M,0.00,N,0.00,K,A*35
$GPGGA,095047.000,5216.6941,N,02048.5544,E,1,5,1.30,84.2,M,39.0,M,,*64
$GNGSA,A,3,16,20,11,03,06,,,,,,,,1.62,1.30,0.97,1*08
$GNGSA,A,3,,,,,,,,,,,,,1.62,1.30,0.97,2*0B
$GPGSV,3,1,11,09,86,039,17,06,44,244,18,07,40,190,20,11,38,295,22,0*6D
$GPGSV,3,2,11,20,22,306,28,16,21,074,24,26,18,045,18,44,17,128,,0*60
$GPGSV,3,3,11,03,16,130,15,30,12,205,,29,04,355,,0*5C
$GLGSV,1,1,00,1*78
$GNGLL,5216.6941,N,02048.5544,E,095047.000,A,A*4C
$GPTXT,01,01,02,ANTSTATUS=OPEN*2B
$GNRMC,095048.000,A,5216.6941,N,02048.5544,E,0.00,0.19,281023,,,A,V*0C
$GPVTG,0.19,T,,M,0.00,N,0.00,K,A*35
$GPGGA,095048.000,5216.6941,N,02048.5544,E,1,5,1.30,84.2,M,39.0,M,,*6B
$GNGSA,A,3,16,20,11,03,06,,,,,,,,1.62,1.30,0.97,1*08
$GNGSA,A,3,,,,,,,,,,,,,1.62,1.30,0.97,2*0B
$GPGSV,3,1,11,09,86,039,17,06,44,244,18,07,40,190,20,11,38,295,22,0*6D
$GPGSV,3,2,11,37,30,179,,20,22,306,28,16,21,074,24,26,18,045,18,0*65
$GPGSV,3,3,11,03,16,130,15,30,12,205,,29,04,355,,0*5C
$GLGSV,1,1,00,1*78
$GNGLL,5216.6941,N,02048.5544,E,095048.000,A,A*43
$GPTXT,01,01,02,ANTSTATUS=OPEN*2B
$GNRMC,095049.000,A,5216.6923,N,02048.5541,E,0.14,0.19,281023,,,A,V*09
$GPVTG,0.19,T,,M,0.14,N,0.27,K,A*35
$GPGGA,095049.000,5216.6923,N,02048.5541,E,1,5,1.30,83.4,M,39.0,M,,*6A
$GNGSA,A,3,16,20,11,03,06,,,,,,,,1.62,1.30,0.97,1*08
$GNGSA,A,3,,,,,,,,,,,,,1.62,1.30,0.97,2*0B
$GPGSV,3,1,11,09,86,039,16,06,44,244,18,07,40,190,20,11,38,295,22,0*6C
$GPGSV,3,2,11,37,30,179,,20,22,306,28,16,21,074,24,26,18,045,18,0*65
$GPGSV,3,3,11,03,16,130,15,30,12,205,,29,04,355,,0*5C
$GLGSV,1,1,00,1*78
$GNGLL,5216.6923,N,02048.5541,E,095049.000,A,A*43
$GPTXT,01,01,02,ANTSTATUS=OPEN*2B
$GNRMC,095050.000,A,5216.6910,N,02048.5540,E,0.33,0.19,281023,,,A,V*05
$GPVTG,0.19,T,,M,0.33,N,0.61,K,A*32
$GPGGA,095050.000,5216.6910,N,02048.5540,E,1,5,1.30,83.2,M,39.0,M,,*65
$GNGSA,A,3,16,20,11,03,06,,,,,,,,1.62,1.30,0.97,1*08
$GNGSA,A,3,,,,,,,,,,,,,1.62,1.30,0.97,2*0B
$GPGSV,3,1,11,09,86,039,16,06,44,244,18,07,40,190,20,11,38,295,22,0*6C
$GPGSV,3,2,11,37,30,179,,20,22,306,28,16,21,074,24,26,18,045,18,0*65
$GPGSV,3,3,11,03,16,130,15,30,12,205,,29,04,355,,0*5C
$GLGSV,1,1,00,1*78
$GNGLL,5216.6910,N,02048.5540,E,095050.000,A,A*4A
$GPTXT,01,01,02,ANTSTATUS=OPEN*2B
$GNRMC,095051.000,A,5216.6914,N,02048.5536,E,0.14,0.19,281023,,,A,V*04
$GPVTG,0.19,T,,M,0.14,N,0.25,K,A*37
$GPGGA,095051.000,5216.6914,N,02048.5536,E,1,5,1.30,82.2,M,39.0,M,,*60
$GNGSA,A,3,16,20,11,03,06,,,,,,,,1.62,1.30,0.97,1*08
$GNGSA,A,3,,,,,,,,,,,,,1.62,1.30,0.97,2*0B
$GPGSV,3,1,11,09,86,039,16,06,44,244,18,07,40,190,20,11,38,295,22,0*6C
$GPGSV,3,2,11,37,30,179,,20,22,306,28,16,21,074,24,26,18,045,18,0*65
$GPGSV,3,3,11,03,16,130,15,30,12,205,,29,04,355,,0*5C
$GLGSV,1,1,00,1*78
$GNGLL,5216.6914,N,02048.5536,E,095051.000,A,A*4E
$GPTXT,01,01,02,ANTSTATUS=OPEN*2B
$GNRMC,095052.000,A,5216.6918,N,02048.5536,E,0.00,0.19,281023,,,A,V*0E
$GPVTG,0.19,T,,M,0.00,N,0.00,K,A*35
$GPGGA,095052.000,5216.6918,N,02048.5536,E,1,5,1.30,82.2,M,39.0,M,,*6F
$GNGSA,A,3,16,20,11,03,06,,,,,,,,1.62,1.30,0.97,1*08
$GNGSA,A,3,,,,,,,,,,,,,1.62,1.30,0.97,2*0B
$GPGSV,3,1,11,09,86,039,16,06,44,244,18,07,40,190,20,11,38,295,22,0*6C
$GPGSV,3,2,11,37,30,179,,20,22,306,28,16,21,074,24,26,18,045,17,0*6A
$GPGSV,3,3,11,03,16,130,15,30,12,205,,29,04,355,,0*5C
$GLGSV,1,1,00,1*78
$GNGLL,5216.6918,N,02048.5536,E,095052.000,A,A*41
$GPTXT,01,01,02,ANTSTATUS=OPEN*2B
$GNRMC,095053.000,A,5216.6922,N,02048.5535,E,0.00,0.19,281023,,,A,V*05
$GPVTG,0.19,T,,M,0.00,N,0.00,K,A*35
$GPGGA,095053.000,5216.6922,N,02048.5535,E,1,5,1.30,82.2,M,39.0,M,,*64
$GNGSA,A,3,16,20,11,03,06,,,,,,,,1.62,1.30,0.97,1*08
$GNGSA,A,3,,,,,,,,,,,,,1.62,1.30,0.97,2*0B
$GPGSV,3,1,11,09,86,039,16,06,44,244,18,07,40,190,20,11,38,295,22,0*6C
$GPGSV,3,2,11,37,30,179,,20,22,306,28,16,21,074,24,26,18,045,17,0*6A
$GPGSV,3,3,11,03,16,130,15,30,12,205,,29,04,355,,0*5C
$GLGSV,1,1,00,1*78
$GNGLL,5216.6922,N,02048.5535,E,095053.000,A,A*4A
$GPTXT,01,01,02,ANTSTATUS=OPEN*2B
$GNRMC,095054.000,A,5216.6921,N,02048.5532,E,0.00,0.19,281023,,,A,V*06
$GPVTG,0.19,T,,M,0.00,N,0.00,K,A*35
$GPGGA,095054.000,5216.6921,N,02048.5532,E,1,5,1.30,82.5,M,39.0,M,,*60
$GNGSA,A,3,16,20,11,03,06,,,,,,,,1.62,1.30,0.97,1*08
$GNGSA,A,3,,,,,,,,,,,,,1.62,1.30,0.97,2*0B
$GPGSV,3,1,11,09,86,039,16,06,44,244,18,07,40,190,20,11,38,295,23,0*6D
$GPGSV,3,2,11,37,30,179,,20,22,306,28,16,21,074,24,26,18,045,17,0*6A
$GPGSV,3,3,11,03,16,130,15,30,12,205,,29,04,355,,0*5C
$GLGSV,1,1,00,1*78
$GNGLL,5216.6921,N,02048.5532,E,095054.000,A,A*49
$GPTXT,01,01,02,ANTSTATUS=OPEN*2B
$GNRMC,095055.000,A,5216.6921,N,02048.5532,E,0.00,0.19,281023,,,A,V*07
$GPVTG,0.19,T,,M,0.00,N,0.00,K,A*35
$GPGGA,095055.000,5216.6921,N,02048.5532,E,1,5,1.30,82.5,M,39.0,M,,*61
$GNGSA,A,3,16,20,11,03,06,,,,,,,,1.62,1.30,0.97,1*08
$GNGSA,A,3,,,,,,,,,,,,,1.62,1.30,0.97,2*0B
$GPGSV,3,1,11,09,86,039,16,06,44,244,17,07,40,190,20,11,38,295,23,0*62
$GPGSV,3,2,11,37,30,179,,20,22,306,28,16,21,074,25,26,18,045,17,0*6B
$GPGSV,3,3,11,03,16,130,15,30,12,205,,29,04,355,,0*5C
$GLGSV,1,1,00,1*78
$GNGLL,5216.6921,N,02048.5532,E,095055.000,A,A*48
$GPTXT,01,01,02,ANTSTATUS=OPEN*2B
$GNRMC,095056.000,A,5216.6921,N,02048.5532,E,0.00,0.19,281023,,,A,V*04
$GPVTG,0.19,T,,M,0.00,N,0.00,K,A*35
$GPGGA,095056.000,5216.6921,N,02048.5532,E,1,5,1.30,82.5,M,39.0,M,,*62
$GNGSA,A,3,16,20,11,03,06,,,,,,,,1.62,1.30,0.97,1*08
$GNGSA,A,3,,,,,,,,,,,,,1.62,1.30,0.97,2*0B
$GPGSV,3,1,11,09,86,039,16,06,44,244,16,07,40,190,20,11,38,295,23,0*63
$GPGSV,3,2,11,37,30,179,,20,22,306,28,16,21,074,25,26,18,045,16,0*6A
$GPGSV,3,3,11,03,16,130,16,30,12,205,,29,04,355,,0*5F
$GLGSV,1,1,00,1*78
$GNGLL,5216.6921,N,02048.5532,E,095056.000,A,A*4B
$GPTXT,01,01,02,ANTSTATUS=OPEN*2B
$GNRMC,095057.000,A,5216.6925,N,02048.5530,E,0.09,0.19,281023,,,A,V*0A
$GPVTG,0.19,T,,M,0.09,N,0.17,K,A*3A
$GPGGA,095057.000,5216.6925,N,02048.5530,E,1,5,1.30,83.0,M,39.0,M,,*61
$GNGSA,A,3,16,20,11,03,06,,,,,,,,1.62,1.30,0.97,1*08
$GNGSA,A,3,,,,,,,,,,,,,1.62,1.30,0.97,2*0B
$GPGSV,3,1,11,09,86,039,16,06,44,244,16,07,40,190,20,11,38,295,23,0*63
$GPGSV,3,2,11,37,30,179,,20,22,306,28,16,21,074,25,26,18,045,16,0*6A
$GPGSV,3,3,11,03,16,130,16,30,12,205,,29,04,355,,0*5F
$GLGSV,1,1,00,1*78
$GNGLL,5216.6925,N,02048.5530,E,095057.000,A,A*4C
$GPTXT,01,01,02,ANTSTATUS=OPEN*2B
$GNRMC,095058.000,A,5216.6929,N,02048.5529,E,0.00,0.19,281023,,,A,V*08
$GPVTG,0.19,T,,M,0.00,N,0.00,K,A*35
$GPGGA,095058.000,5216.6929,N,02048.5529,E,1,5,1.30,83.3,M,39.0,M,,*69
$GNGSA,A,3,16,20,11,03,06,,,,,,,,1.62,1.30,0.97,1*08
$GNGSA,A,3,,,,,,,,,,,,,1.62,1.30,0.97,2*0B
$GPGSV,3,1,11,09,86,039,16,06,44,244,15,07,40,190,19,11,38,295,23,0*6A
$GPGSV,3,2,11,39,29,174,,20,22,306,28,16,21,074,25,26,18,045,16,0*61
$GPGSV,3,3,11,03,16,130,16,30,12,205,,29,04,355,,0*5F
$GLGSV,1,1,00,1*78
$GNGLL,5216.6929,N,02048.5529,E,095058.000,A,A*47
$GPTXT,01,01,02,ANTSTATUS=OPEN*2B
$GNRMC,095059.000,A,5216.6931,N,02048.5527,E,0.00,0.19,281023,,,A,V*0E
$GPVTG,0.19,T,,M,0.00,N,0.00,K,A*35
$GPGGA,095059.000,5216.6931,N,02048.5527,E,1,5,1.30,83.7,M,39.0,M,,*6B
$GNGSA,A,3,16,20,11,03,06,,,,,,,,1.62,1.30,0.97,1*08
$GNGSA,A,3,,,,,,,,,,,,,1.62,1.30,0.97,2*0B
$GPGSV,3,1,11,09,86,039,16,06,44,244,15,07,40,190,19,11,38,295,24,0*6D
$GPGSV,3,2,11,39,29,174,,20,22,306,28,16,21,074,25,26,18,045,16,0*61
$GPGSV,3,3,11,03,16,130,16,30,12,205,,29,04,355,,0*5F
$GLGSV,1,1,00,1*78
$GNGLL,5216.6931,N,02048.5527,E,095059.000,A,A*41
